name,yelp_url,review_count,rating,price_rating,year,latitude,longitude,city,region,zipCode,cuisine,url,stars
Chez_TJ,https://www.yelp.com/biz/chez-tj-mountain-view?osq=Chef+Tj,735,4,4,2019,37.39468,-122.08044,South_San_Francisco,California,94041,Contemporary,https://guide.michelin.com/us/en/california/south-san-francisco/restaurant/chez-tj,1
Protégé,https://www.yelp.com/biz/prot%C3%A9g%C3%A9-palo-alto-2?osq=protege,348,4.5,4,2019,37.427853,-122.14362,South_San_Francisco,California,94301,Contemporary,https://guide.michelin.com/us/en/california/south-san-francisco/restaurant/protege,1
Madera,https://www.yelp.com/biz/madera-menlo-park?osq=madera,886,3.5,3,2019,37.42014,-122.21151,San_Francisco,California,94025,Contemporary,https://guide.michelin.com/us/en/california/san-francisco/restaurant/madera,1
The_Village_Pub,https://www.yelp.com/biz/the-village-pub-woodside?osq=The+Village+Pub,1088,4,4,2019,37.42897,-122.25178,San_Francisco,California,94062,Contemporary,https://guide.michelin.com/us/en/california/san-francisco/restaurant/the-village-pub,1
Plumed_Horse,https://www.yelp.com/biz/plumed-horse-saratoga?osq=Plumed+Horse,1244,4,4,2019,37.25648,-122.03537,South_San_Francisco,California,95070,Contemporary,https://guide.michelin.com/us/en/california/south-san-francisco/restaurant/plumed-horse,1
Wakuriya,https://www.yelp.com/biz/wakuriya-san-mateo,535,4.5,4,2019,37.52114,-122.3366,San_Francisco,California,94402,Japanese,https://guide.michelin.com/us/en/california/san-francisco/restaurant/wakuriya,1
Sushi_Yoshizumi,https://www.yelp.com/biz/sushi-yoshizumi-san-mateo,318,4.5,4,2019,37.565075,-122.3211,San_Francisco,California,94401,Japanese,https://guide.michelin.com/us/en/california/san-francisco/restaurant/sushi-yoshizumi,1
Maum,https://www.yelp.com/biz/maum-palo-alto?osq=maum,63,4.5,4,2019,37.72669,-122.414215,South_San_Francisco,California,94101,Korean,https://guide.michelin.com/us/en/california/south-san-francisco/restaurant/maum,1
Aster,http://www.yelp.com/biz/aster-san-francisco,384,4,4,2019,37.755054,-122.423134,San_Francisco,California,94110,Californian,https://guide.michelin.com/us/en/california/san-francisco/restaurant/aster,1
Omakase,https://www.yelp.com/biz/omakase-san-francisco,552,4.5,4,2019,37.77077,-122.40298,San_Francisco,California,94103,Japanese,https://guide.michelin.com/us/en/california/san-francisco/restaurant/omakase,1
Commonwealth,http://www.yelp.com/biz/commonwealth-san-francisco,1048,4,4,2019,37.761395,-122.41946,San_Francisco,California,94110,Contemporary,https://guide.michelin.com/us/en/california/san-francisco/restaurant/commonwealth,1
Luce,http://www.yelp.com/biz/luce-san-francisco,771,4,3,2019,37.78194,-122.40498,San_Francisco,California,94103,Contemporary,https://guide.michelin.com/us/en/california/san-francisco/restaurant/luce,1
Birdsong,https://www.yelp.com/biz/birdsong-san-francisco?osq=birdsong,326,4.5,4,2019,37.779495,-122.41048,San_Francisco,California,94101,American,https://guide.michelin.com/us/en/california/san-francisco/restaurant/birdsong,1
In_Situ,https://www.yelp.com/biz/in-situ-san-francisco?osq=In+Situ,497,3.5,3,2019,37.785633,-122.40113,San_Francisco,California,94103,International,https://guide.michelin.com/us/en/california/san-francisco/restaurant/in-situ,1
Hashiri,https://www.yelp.com/biz/hashiri-san-francisco?osq=hashiri,120,4.5,4,2019,37.783062,-122.40754,San_Francisco,California,94103,Japanese,https://guide.michelin.com/us/en/california/san-francisco/restaurant/hashiri,1
Angler,https://www.yelp.com/biz/angler-san-francisco,409,3.5,4,2019,37.793167,-122.39213,San_Francisco,California,94101,Contemporary,https://guide.michelin.com/us/en/california/san-francisco/restaurant/angler,1
Rich_Table,https://www.yelp.com/biz/rich-table-san-francisco,1358,4,3,2019,37.774914,-122.42271,San_Francisco,California,94102,Contemporary,https://guide.michelin.com/us/en/california/san-francisco/restaurant/rich-table,1
Kin_Khao,http://www.yelp.com/biz/kin-khao-san-francisco-2,2136,4,2,2019,37.785267,-122.40951,San_Francisco,California,94102,Thai,https://guide.michelin.com/us/en/california/san-francisco/restaurant/kin-khao,1
Kin_Khao,http://www.yelp.com/biz/kin-khao-san-francisco-2,2136,4,2,2019,37.785267,-122.40951,San_Francisco,California,94102,Thai,https://guide.michelin.com/us/en/california/san-francisco/restaurant/kin-khao,1
Sons_&_Daughters,https://www.yelp.com/biz/sons-and-daughters-san-francisco,721,4,4,2019,37.79037,-122.40917,San_Francisco,California,94108,Contemporary,https://guide.michelin.com/us/en/california/san-francisco/restaurant/sons-daughters,1
Mister_Jiu's,https://www.yelp.com/biz/mister-jius-san-francisco,839,3.5,4,2019,37.79371,-122.406654,San_Francisco,California,94108,Chinese,https://guide.michelin.com/us/en/california/san-francisco/restaurant/mister-jius,1
jū-ni,https://www.yelp.com/biz/j%C5%AB-ni-san-francisco-5,438,4.5,4,2019,37.77672,-122.43886,San_Francisco,California,94117,Japanese,https://guide.michelin.com/us/en/california/san-francisco/restaurant/ju-ni,1
The_Progress,https://www.yelp.com/biz/the-progress-san-francisco-2,930,4,4,2019,37.78371,-122.43282,San_Francisco,California,94115,Californian,https://guide.michelin.com/us/en/california/san-francisco/restaurant/the-progress,1
State_Bird_Provisions,https://www.yelp.com/biz/state-bird-provisions-san-francisco,2904,4,3,2019,37.783737,-122.43283,San_Francisco,California,94115,American,https://guide.michelin.com/us/en/california/san-francisco/restaurant/state-bird-provisions,1
Octavia,https://www.yelp.com/biz/octavia-san-francisco,614,4,3,2019,37.787857,-122.42709,San_Francisco,California,94109,Californian,https://guide.michelin.com/us/en/california/san-francisco/restaurant/octavia,1
SPQR,https://www.yelp.com/biz/spqr-san-francisco,2013,3.5,3,2019,37.78732,-122.43375,San_Francisco,California,94115,Italian,https://guide.michelin.com/us/en/california/san-francisco/restaurant/spqr,1
Kinjo,https://www.yelp.com/biz/kinjo-san-francisco-5?osq=kinjo,137,4,4,2019,37.79699,-122.422005,San_Francisco,California,94109,Japanese,https://guide.michelin.com/us/en/california/san-francisco/restaurant/kinjo,1
Sorrel,https://www.yelp.com/biz/sorrel-san-francisco-3,284,4,4,2019,37.788334,-122.44614,San_Francisco,California,94101,Californian,https://guide.michelin.com/us/en/california/san-francisco/restaurant/sorrel,1
Gary_Danko,https://www.yelp.com/biz/gary-danko-san-francisco,5598,4.5,4,2019,37.80599,-122.42066,San_Francisco,California,94109,Contemporary,https://guide.michelin.com/us/en/california/san-francisco/restaurant/gary-danko,1
Bar_Crenn,https://www.yelp.com/biz/bar-crenn-san-francisco,99,4,4,2019,37.798435,-122.43581,San_Francisco,California,94101,French,https://guide.michelin.com/us/en/california/san-francisco/restaurant/bar-crenn,1
Spruce,https://www.yelp.com/biz/spruce-san-francisco,2054,4,4,2019,37.78772,-122.45264,San_Francisco,California,94118,Californian,https://guide.michelin.com/us/en/california/san-francisco/restaurant/spruce,1
Madcap,https://www.yelp.com/biz/madcap-san-anselmo,311,4.5,4,2019,37.974712,-122.56168,San_Francisco,California,94960,Contemporary,https://guide.michelin.com/us/en/california/san-francisco/restaurant/madcap,1
Aubergine,https://www.yelp.com/biz/aubergine-carmel-by-the-sea-2?osq=auberge+du+soleil,260,4,4,2019,36.55406,-121.924355,Monterey,California,93921,Contemporary,https://guide.michelin.com/us/en/california/monterey/restaurant/aubergine,1
La_Toque,https://www.yelp.com/biz/la-toque-napa?osq=la+toque,675,3.5,4,2019,38.30351,-122.28349,San_Francisco,California,94573,Contemporary,https://guide.michelin.com/us/en/california/san-francisco/restaurant/la-toque,1
Bouchon,https://www.yelp.com/biz/bouchon-yountville?osq=bouchon,3178,4,3,2019,38.40258,-122.3619,San_Francisco,California,94599,French,https://guide.michelin.com/us/en/california/san-francisco/restaurant/bouchon,1
Auberge_du_Soleil,https://www.yelp.com/biz/auberge-du-soleil-rutherford-2?osq=auberge+du+soleil,389,4.5,4,2019,38.49199,-122.40534,San_Francisco,California,94573,Californian,https://guide.michelin.com/us/en/california/san-francisco/restaurant/auberge-du-soleil,1
Madrona_Manor,https://www.yelp.com/biz/madrona-manor-healdsburg-2?osq=madrona+manor,282,4.5,4,2019,38.60428,-122.88647,San_Francisco,California,95448,Contemporary,https://guide.michelin.com/us/en/california/san-francisco/restaurant/madrona-manor,1
Shin_Sushi,https://www.yelp.com/biz/shin-sushi-los-angeles-2?osq=shin+sushi,120,4.5,4,2019,34.15784,-118.49415,Los_Angeles,California,91436,Japanese,https://guide.michelin.com/us/en/california/us-los-angeles/restaurant/shin-sushi,1
Rustic_Canyon,https://www.yelp.com/biz/rustic-canyon-santa-monica?osq=rustic+canyon,1374,4,3,2019,34.024952,-118.49118,Los_Angeles,California,90401,Californian,https://guide.michelin.com/us/en/california/us-los-angeles/restaurant/rustic-canyon,1
Kato,https://www.yelp.com/biz/kato-los-angeles,383,4.5,4,2019,34.041683,-118.460915,Los_Angeles,California,90025,Asian,https://guide.michelin.com/us/en/california/us-los-angeles/restaurant/kato,1
Nozawa_Bar,https://www.yelp.com/biz/nozawa-bar-beverly-hills-3,241,4.5,4,2019,34.0683,-118.39849,Los_Angeles,California,90210,Japanese,https://guide.michelin.com/us/en/california/us-los-angeles/restaurant/nozawa-bar,1
Maude,https://www.yelp.com/biz/maude-beverly-hills,441,4,4,2019,34.064346,-118.39904,Los_Angeles,California,90212,Contemporary,https://guide.michelin.com/us/en/california/us-los-angeles/restaurant/maude,1
Mori_Sushi,https://www.yelp.com/biz/mori-sushi-los-angeles,334,4,4,2019,34.033398,-118.44229,Los_Angeles,California,90064,Japanese,https://guide.michelin.com/us/en/california/us-los-angeles/restaurant/mori-sushi,1
Osteria_Mozza,https://www.yelp.com/biz/osteria-mozza-los-angeles,2975,4,4,2019,34.08342,-118.338974,Los_Angeles,California,90028,Italian,https://guide.michelin.com/us/en/california/us-los-angeles/restaurant/osteria-mozza,1
Le_Comptoir,https://www.yelp.com/biz/le-comptoir-los-angeles-3,158,4,4,2019,34.06354,-118.30057,Los_Angeles,California,90020,Californian,https://guide.michelin.com/us/en/california/us-los-angeles/restaurant/le-comptoir,1
Q_Sushi,https://www.yelp.com/biz/q-sushi-los-angeles-4,249,4,4,2019,34.046883,-118.255844,Los_Angeles,California,90017,Japanese,https://guide.michelin.com/us/en/california/us-los-angeles/restaurant/q-sushi,1
Shibumi,https://www.yelp.com/biz/shibumi-los-angeles,366,3.5,4,2019,34.044155,-118.256134,Los_Angeles,California,90014,Japanese,https://guide.michelin.com/us/en/california/us-los-angeles/restaurant/shibumi559644,1
Hayato,https://www.yelp.com/biz/hayato-los-angeles-3,105,4.5,4,2019,34.03311,-118.24265,Los_Angeles,California,90001,Japanese,https://guide.michelin.com/us/en/california/us-los-angeles/restaurant/hayato,1
Bistro_Na's,https://www.yelp.com/biz/bistro-nas-temple-city-10,1128,4,2,2019,34.104412,-118.07159,Los_Angeles,California,91780,Chinese,https://guide.michelin.com/us/en/california/us-los-angeles/restaurant/bistro-na-s,1
Orsa_&_Winston,https://www.yelp.com/biz/orsa-and-winston-los-angeles,535,4,4,2019,33.92145,-118.275406,Los_Angeles,California,90013,Fusion,https://guide.michelin.com/us/en/california/us-los-angeles/restaurant/orsa-winston,1
Addison,https://www.yelp.com/biz/addison-san-diego-5?osq=addison,478,4.5,4,2019,32.939903,-117.20013,San_Diego,California,92130,Contemporary,https://guide.michelin.com/us/en/california/us-san-diego/restaurant/addison,1
Baumé,https://www.yelp.com/biz/baum%C3%A9-palo-alto-5?osq=baume,342,3.5,4,2019,37.4285,-122.14272,South_San_Francisco,California,94306,Contemporary,https://guide.michelin.com/us/en/california/south-san-francisco/restaurant/baume,2
Commis,https://www.yelp.com/biz/commis-oakland-3?osq=commis,1059,4.5,4,2019,37.82476,-122.25505,San_Francisco,California,94601,Contemporary,https://guide.michelin.com/us/en/california/san-francisco/restaurant/commis,2
Californios,https://www.yelp.com/biz/californios-san-francisco,326,4.5,4,2019,37.75555,-122.417145,San_Francisco,California,94110,Mexican,https://guide.michelin.com/us/en/california/san-francisco/restaurant/californios,2
Lazy_Bear,https://www.yelp.com/biz/lazy-bear-san-francisco-5,693,4.5,4,2019,37.760204,-122.41969,San_Francisco,California,94110,Contemporary,https://guide.michelin.com/us/en/california/san-francisco/restaurant/lazy-bear,2
Saison,https://www.yelp.com/biz/saison-san-francisco-2,570,4,4,2019,37.76327,-122.41543,San_Francisco,California,94107,Californian,https://guide.michelin.com/us/en/california/san-francisco/restaurant/saison,2
Campton_Place,https://www.yelp.com/biz/campton-place-san-francisco,738,4,4,2019,37.78923,-122.40665,San_Francisco,California,94108,Indian,https://guide.michelin.com/us/en/california/san-francisco/restaurant/campton-place,2
Coi,http://www.yelp.com/biz/coi-san-francisco,783,4,4,2019,37.79812,-122.40331,San_Francisco,California,94133,Contemporary,https://guide.michelin.com/us/en/california/san-francisco/restaurant/coi,2
Acquerello,https://www.yelp.com/biz/acquerello-san-francisco,1168,4.5,4,2019,37.79167,-122.42131,San_Francisco,California,94109,Italian,https://guide.michelin.com/us/en/california/san-francisco/restaurant/acquerello,2
Providence,https://www.yelp.com/biz/providence-los-angeles-2,2766,4.5,4,2019,34.083523,-118.33019,Los_Angeles,California,90028,Seafood,https://guide.michelin.com/us/en/california/us-los-angeles/restaurant/providence,2
n/naka,https://www.yelp.com/biz/n-naka-los-angeles,844,4.5,4,2019,34.02526,-118.41206,Los_Angeles,California,90034,Contemporary,https://guide.michelin.com/us/en/california/us-los-angeles/restaurant/n-naka,2
Vespertine,https://www.yelp.com/biz/vespertine-culver-city,303,4.5,4,2019,34.024204,-118.38166,Los_Angeles,California,90232,Contemporary,https://guide.michelin.com/us/en/california/us-los-angeles/restaurant/vespertine,2
Manresa,https://www.yelp.com/biz/manresa-los-gatos-2?osq=manresa,1259,4,4,2019,37.22761,-121.98071,South_San_Francisco,California,95030,Contemporary,https://guide.michelin.com/us/en/california/south-san-francisco/restaurant/manresa,3
Benu,https://www.yelp.com/biz/benu-san-francisco-4,1110,4.5,4,2019,37.78521,-122.39876,San_Francisco,California,94105,Asian,https://guide.michelin.com/us/en/california/san-francisco/restaurant/benu,3
Quince,https://www.yelp.com/biz/quince-san-francisco,1521,4,4,2019,37.79762,-122.40337,San_Francisco,California,94133,Contemporary,https://guide.michelin.com/us/en/california/san-francisco/restaurant/quince,3
Atelier_Crenn,https://www.yelp.com/biz/atelier-crenn-san-francisco,787,4.5,4,2019,37.79835,-122.43586,San_Francisco,California,94123,Contemporary,https://guide.michelin.com/us/en/california/san-francisco/restaurant/atelier-crenn,3
The_French_Laundry,http://www.yelp.com/biz/the-french-laundry-yountville-2,2751,4.5,4,2019,38.40443,-122.36474,San_Francisco,California,94599,Contemporary,https://guide.michelin.com/us/en/california/san-francisco/restaurant/the-french-laundry,3
Parachute,https://www.yelp.com/biz/parachute-chicago,652,4,3,2019,41.94483,-87.70638,Chicago,Chicago,60618,Fusion,https://guide.michelin.com/us/en/illinois/chicago/restaurant/parachute,1
Goosefoot,https://www.yelp.com/biz/goosefoot-chicago,312,4.5,4,2019,41.96856,-87.69596,Chicago,Chicago,60625,Contemporary,https://guide.michelin.com/us/en/illinois/chicago/restaurant/goosefoot,1
Elizabeth,https://www.yelp.com/biz/elizabeth-restaurant-chicago,205,4,4,2019,41.969555,-87.688736,Chicago,Chicago,60625,Contemporary,https://guide.michelin.com/us/en/illinois/chicago/restaurant/elizabeth,1
EL_Ideas,https://www.yelp.com/biz/el-ideas-chicago-2,344,4.5,4,2019,41.863,-87.68686,Chicago,Chicago,60618,Contemporary,https://guide.michelin.com/us/en/illinois/chicago/restaurant/el-ideas,1
Band_of_Bohemia,https://www.yelp.com/biz/band-of-bohemia-chicago,572,4,3,2019,41.967308,-87.67477,Chicago,Chicago,60640,Gastropub,https://guide.michelin.com/us/en/illinois/chicago/restaurant/band-of-bohemia,1
Schwa,https://www.yelp.com/biz/schwa-chicago,559,4,4,2019,41.90888,-87.66792,Chicago,Chicago,60662,Contemporary,https://guide.michelin.com/us/en/illinois/chicago/restaurant/schwa,1
Temporis,https://www.yelp.com/biz/temporis-chicago,118,4.5,4,2019,41.898907,-87.66725,Chicago,Chicago,60622,Contemporary,https://guide.michelin.com/us/en/illinois/chicago/restaurant/temporis,1
Entente,https://www.yelp.com/biz/entente-chicago-2,166,4,3,2019,41.93721,-87.6652,Chicago,Chicago,60657,Contemporary,https://guide.michelin.com/us/en/illinois/chicago/restaurant/entente,1
Elske,https://www.yelp.com/biz/elske-chicago,208,4,4,2019,41.884426,-87.66071,Chicago,Chicago,60607,Contemporary,https://guide.michelin.com/us/en/illinois/chicago/restaurant/elske,1
Dusek's_(Board_&_Beer),https://www.yelp.com/biz/duseks-tavern-chicago,966,4,2,2019,41.857853,-87.65757,Chicago,Chicago,60608,Gastropub,https://guide.michelin.com/us/en/illinois/chicago/restaurant/dusek-s-board-beer,1
Roister,https://www.yelp.com/biz/roister-chicago-2,802,4,4,2019,41.886658,-87.65187,Chicago,Chicago,60607,Contemporary,https://guide.michelin.com/us/en/illinois/chicago/restaurant/roister,1
Boka,https://www.yelp.com/biz/boka-chicago,1542,4.5,4,2019,41.91363,-87.64806,Chicago,Chicago,60614,Contemporary,https://guide.michelin.com/us/en/illinois/chicago/restaurant/boka,1
Blackbird,https://www.yelp.com/biz/blackbird-chicago,1556,4,3,2019,41.88423,-87.64356,Chicago,Chicago,60661,Contemporary,https://guide.michelin.com/us/en/illinois/chicago/restaurant/blackbird,1
Sepia,https://www.yelp.com/biz/sepia-chicago,1175,4,4,2019,41.88394,-87.64247,Chicago,Chicago,60661,American,https://guide.michelin.com/us/en/illinois/chicago/restaurant/sepia,1
North_Pond,https://www.yelp.com/biz/north-pond-chicago,596,4,4,2019,41.9296,-87.63762,Chicago,Chicago,60614,Contemporary,https://guide.michelin.com/us/en/illinois/chicago/restaurant/north-pond,1
Everest,https://www.yelp.com/biz/everest-chicago,387,3.5,4,2019,41.87597,-87.63212,Chicago,Chicago,60605,French,https://guide.michelin.com/us/en/illinois/chicago/restaurant/everest,1
Topolobampo,https://www.yelp.com/biz/topolobampo-chicago,1024,3.5,4,2019,41.89047,-87.63085,Chicago,Chicago,60654,Mexican,https://guide.michelin.com/us/en/illinois/chicago/restaurant/topolobampo,1
Spiaggia,https://www.yelp.com/biz/spiaggia-chicago-4,589,4,4,2019,41.90062,-87.62457,Chicago,Chicago,60611,Italian,https://guide.michelin.com/us/en/illinois/chicago/restaurant/spiaggia,1
Del_Posto,https://www.yelp.com/biz/del-posto-new-york,1439,4,4,2019,40.74327,-74.0077,New_York,New_York_City,10011,Italian,https://guide.michelin.com/us/en/new-york-state/new-york/restaurant/del-posto,1
Le_Grill_de_Joël_Robuchon,https://www.yelp.com/biz/le-grill-de-jo%C3%ABl-robuchon-new-york-4,36,4,4,2019,40.742897,-74.0077,New_York,New_York_City,10011,French,https://guide.michelin.com/us/en/new-york-state/new-york/restaurant/le-grill-de-joel-robuchon,1
L'Appart,https://www.yelp.com/biz/l-appart-new-york,121,5,4,2019,40.711903,-74.01544,New_York,New_York_City,10281,French,https://guide.michelin.com/us/en/new-york-state/new-york/restaurant/l-appart,1
Okuda,https://www.yelp.com/biz/okuda-new-york,43,5,4,2019,40.743793,-74.00633,New_York,New_York_City,10011,Japanese,https://guide.michelin.com/us/en/new-york-state/new-york/restaurant/okuda,1
Wallsé,https://www.yelp.com/biz/wallse-new-york-8,329,4,3,2019,40.73538,-74.00814,New_York,New_York_City,10014,Austrian,https://guide.michelin.com/us/en/new-york-state/new-york/restaurant/wallse,1
Jeju_Noodle_Bar,https://www.yelp.com/biz/jeju-noodle-bar-new-york,733,4.5,2,2019,40.732952,-74.00744,New_York,New_York_City,10014,Korean,https://guide.michelin.com/us/en/new-york-state/new-york/restaurant/jeju-noodle-bar,1
Sushi_Nakazawa,https://www.yelp.com/biz/sushi-nakazawa-new-york,1544,4.5,4,2019,40.731716,-74.00451,New_York,New_York_City,10014,Japanese,https://guide.michelin.com/us/en/new-york-state/new-york/restaurant/sushi-nakazawa,1
Kosaka,https://www.yelp.com/biz/kosaka-new-york-2,182,4.5,4,2019,40.738316,-74.00137,New_York,New_York_City,10011,Japanese,https://guide.michelin.com/us/en/new-york-state/new-york/restaurant/kosaka,1
Bâtard,https://www.yelp.com/biz/b%C3%A2tard-new-york,446,4,4,2019,40.719616,-74.00589,New_York,New_York_City,10013,Contemporary,https://guide.michelin.com/us/en/new-york-state/new-york/restaurant/batard,1
Hirohisa,https://www.yelp.com/biz/hirohisa-new-york,175,4.5,4,2019,40.72452,-74.003006,New_York,New_York_City,10012,Japanese,https://guide.michelin.com/us/en/new-york-state/new-york/restaurant/hirohisa,1
Blue_Hill,https://www.yelp.com/biz/blue-hill-new-york,1025,4.5,4,2019,40.7321,-73.9996,New_York,New_York_City,10011,American,https://guide.michelin.com/us/en/new-york-state/new-york/restaurant/blue-hill,1
ZZ's_Clam_Bar,https://www.yelp.com/biz/zzs-clam-bar-new-york,100,4,4,2019,40.727646,-74.00046,New_York,New_York_City,10012,Seafood,https://guide.michelin.com/us/en/new-york-state/new-york/restaurant/zz-s-clam-bar,1
Babbo,https://www.yelp.com/biz/babbo-new-york,2482,4,4,2019,40.73233,-73.99916,New_York,New_York_City,10011,Italian,https://guide.michelin.com/us/en/new-york-state/new-york/restaurant/babbo,1
Carbone,https://www.yelp.com/biz/carbone-new-york,1347,4,4,2019,40.727966,-74.00017,New_York,New_York_City,10003,Italian,https://guide.michelin.com/us/en/new-york-state/new-york/restaurant/carbone,1
Le_Coucou,https://www.yelp.com/biz/le-coucou-new-york,589,4,4,2019,40.719162,-74.00001,New_York,New_York_City,10013,French,https://guide.michelin.com/us/en/new-york-state/new-york/restaurant/le-coucou,1
Aldea,https://www.yelp.com/biz/aldea-new-york,604,4,3,2019,40.73885,-73.99366,New_York,New_York_City,10011,Mediterranean,https://guide.michelin.com/us/en/new-york-state/new-york/restaurant/aldea,1
Cote,https://www.yelp.com/biz/cote-new-york-6,1269,4,4,2019,40.73778,-73.99375,New_York,New_York_City,10010,Korean,https://guide.michelin.com/us/en/new-york-state/new-york/restaurant/cote,1
Bouley_at_Home,https://www.yelp.com/biz/bouley-at-home-new-york,135,4,4,2019,40.74114,-73.99242,New_York,New_York_City,10010,Contemporary,https://guide.michelin.com/us/en/new-york-state/new-york/restaurant/bouley-at-home,1
Gotham_Bar_and_Grill,https://www.yelp.com/biz/gotham-restaurant-new-york,1618,4,4,2019,40.73417,-73.99379,New_York,New_York_City,10003,American,https://guide.michelin.com/us/en/new-york-state/new-york/restaurant/gotham-bar-and-grill,1
Nix,https://www.yelp.com/biz/nix-new-york,548,4,2,2019,40.733166,-73.993515,New_York,New_York_City,10003,Vegetarian,https://guide.michelin.com/us/en/new-york-state/new-york/restaurant/nix,1
Junoon,https://www.yelp.com/biz/junoon-new-york,1567,3.5,3,2019,40.74325,-73.99077,New_York,New_York_City,10010,Indian,https://guide.michelin.com/us/en/new-york-state/new-york/restaurant/junoon,1
NoMad,https://www.yelp.com/biz/the-nomad-restaurant-new-york,1492,4,3,2019,40.74497,-73.98883,New_York,New_York_City,10001,Contemporary,https://guide.michelin.com/us/en/new-york-state/new-york/restaurant/nomad,1
The_Musket_Room,https://www.yelp.com/biz/the-musket-room-new-york,532,4,4,2019,40.723915,-73.99375,New_York,New_York_City,10012,Contemporary,https://guide.michelin.com/us/en/new-york-state/new-york/restaurant/the-musket-room,1
Uncle_Boons,https://www.yelp.com/biz/uncle-boons-new-york-2,1009,4,3,2019,40.721203,-73.99441,New_York,New_York_City,10012,Thai,https://guide.michelin.com/us/en/new-york-state/new-york/restaurant/uncle-boons,1
Noda,https://www.yelp.com/biz/noda-new-york,52,4.5,4,2019,40.74497,-73.988075,New_York,New_York_City,10001,Japanese,https://guide.michelin.com/us/en/new-york-state/new-york/restaurant/noda,1
Gramercy_Tavern,https://www.yelp.com/biz/gramercy-tavern-new-york,3060,4.5,4,2019,40.73849,-73.98868,New_York,New_York_City,10003,Contemporary,https://guide.michelin.com/us/en/new-york-state/new-york/restaurant/gramercy-tavern,1
The_Clocktower,https://www.yelp.com/biz/the-clocktower-new-york,391,4,3,2019,40.7414,-73.987595,New_York,New_York_City,10010,Contemporary,https://guide.michelin.com/us/en/new-york-state/new-york/restaurant/the-clocktower,1
Ai_Fiori,https://www.yelp.com/biz/ai-fiori-new-york,1349,4,4,2019,40.75013,-73.98357,New_York,New_York_City,10018,Italian,https://guide.michelin.com/us/en/new-york-state/new-york/restaurant/ai-fiori,1
Casa_Mono,https://www.yelp.com/biz/casa-mono-new-york,1312,3.5,3,2019,40.73595,-73.98706,New_York,New_York_City,10003,Spanish,https://guide.michelin.com/us/en/new-york-state/new-york/restaurant/casa-mono,1
Jewel_Bako,https://www.yelp.com/biz/jewel-bako-new-york,538,3.5,4,2019,40.72713,-73.98928,New_York,New_York_City,10003,Japanese,https://guide.michelin.com/us/en/new-york-state/new-york/restaurant/jewel-bako,1
The_River_Café,https://www.yelp.com/biz/the-river-caf%C3%A9-brooklyn-3,1189,4,4,2019,40.703613,-73.994774,New_York,New_York_City,11201,Contemporary,https://guide.michelin.com/us/en/new-york-state/new-york/restaurant/the-river-cafe,1
Bar_Uchū,https://www.yelp.com/biz/uchu-new-york?osq=uchu,86,4.5,4,2019,40.72191,-73.99003,New_York,New_York_City,10002,Japanese,https://guide.michelin.com/us/en/new-york-state/new-york/restaurant/bar-uchu,1
Café_China,https://www.yelp.com/biz/caf%C3%A9-china-new-york-2,1727,4,2,2019,40.749973,-73.98228,New_York,New_York_City,10016,Chinese,https://guide.michelin.com/us/en/new-york-state/new-york/restaurant/cafe-china,1
Kanoyama,https://www.yelp.com/biz/kanoyama-new-york,691,4,4,2019,40.73071,-73.98655,New_York,New_York_City,10003,Japanese,https://guide.michelin.com/us/en/new-york-state/new-york/restaurant/kanoyama,1
Contra,https://www.yelp.com/biz/contra-new-york,340,4,4,2019,40.719917,-73.98922,New_York,New_York_City,10002,Contemporary,https://guide.michelin.com/us/en/new-york-state/new-york/restaurant/contra,1
Atomix,https://www.yelp.com/biz/atomix-new-york,99,4.5,4,2019,40.744408,-73.98292,New_York,New_York_City,10016,Korean,https://guide.michelin.com/us/en/new-york-state/new-york/restaurant/atomix,1
Kyo_Ya,https://www.yelp.com/biz/kyo-ya-new-york,454,4.5,4,2019,40.7266,-73.98526,New_York,New_York_City,10009,Japanese,https://guide.michelin.com/us/en/new-york-state/new-york/restaurant/kyo-ya,1
Kajitsu,https://www.yelp.com/biz/kajitsu-new-york-3,276,4,4,2019,40.72776,-73.98428,New_York,New_York_City,10016,Japanese,https://guide.michelin.com/us/en/new-york-state/new-york/restaurant/kajitsu,1
Agern,https://www.yelp.com/biz/agern-new-york,207,4,4,2019,40.75234,-73.9775,New_York,New_York_City,10017,Scandinavian,https://guide.michelin.com/us/en/new-york-state/new-york/restaurant/agern,1
Caviar_Russe,https://www.yelp.com/biz/caviar-russe-new-york,150,4.5,4,2019,40.760685,-73.97355,New_York,New_York_City,10022,Contemporary,https://guide.michelin.com/us/en/new-york-state/new-york/restaurant/caviar-russe,1
Tuome,https://www.yelp.com/biz/tuome-new-york-2,589,4.5,3,2019,40.724194,-73.9828,New_York,New_York_City,10009,Fusion,https://guide.michelin.com/us/en/new-york-state/new-york/restaurant/tuome,1
Tempura_Matsui,https://www.yelp.com/biz/tempura-matsui-new-york,1471,4.5,4,2019,40.74839,-73.97474,New_York,New_York_City,10158,Japanese,https://guide.michelin.com/us/en/new-york-state/new-york/restaurant/tempura-matsui,1
Sushi_Yasuda,https://www.yelp.com/biz/sushi-yasuda-new-york,2177,4,4,2019,40.75108,-73.97364,New_York,New_York_City,10017,Japanese,https://guide.michelin.com/us/en/new-york-state/new-york/restaurant/sushi-yasuda,1
Sushi_Amane,https://www.yelp.com/biz/sushi-amane-new-york?start=40,83,4,4,2019,40.75133,-73.971725,New_York,New_York_City,10017,Japanese,https://guide.michelin.com/us/en/new-york-state/new-york/restaurant/sushi-amane,1
Café_Boulud,https://www.yelp.com/biz/cafe-boulud-new-york-4,728,4,4,2019,40.77439,-73.96414,New_York,New_York_City,10021,French,https://guide.michelin.com/us/en/new-york-state/new-york/restaurant/cafe-boulud,1
Claro,https://www.yelp.com/biz/claro-brooklyn,264,4,2,2019,40.677395,-73.98615,New_York,New_York_City,11215,Mexican,https://guide.michelin.com/us/en/new-york-state/new-york/restaurant/claro,1
Satsuki,https://www.yelp.com/biz/satsuki-new-york-3,50,4,4,2019,40.801243,-73.95187,New_York,New_York_City,10036,Japanese,https://guide.michelin.com/us/en/new-york-state/new-york/restaurant/satsuki,1
Sushi_Noz,https://www.yelp.com/biz/sushi-noz-new-york,157,4.5,4,2019,40.77384,-73.958275,New_York,New_York_City,10075,Japanese,https://guide.michelin.com/us/en/new-york-state/new-york/restaurant/sushi-noz,1
Sushi_Inoue,https://www.yelp.com/biz/sushi-inoue-new-york,130,4,4,2019,40.810448,-73.943726,New_York,New_York_City,10027,Japanese,https://guide.michelin.com/us/en/new-york-state/new-york/restaurant/sushi-inoue,1
Meadowsweet,https://www.yelp.com/biz/meadowsweet-brooklyn,442,4,3,2019,40.710354,-73.96317,New_York,New_York_City,11212,Mediterranean,https://guide.michelin.com/us/en/new-york-state/new-york/restaurant/meadowsweet,1
Casa_Enríque,https://www.yelp.com/biz/casa-enrique-long-island-city,1335,4,2,2019,40.743492,-73.95425,New_York,New_York_City,11101,Mexican,https://guide.michelin.com/us/en/new-york-state/new-york/restaurant/casa-enrique,1
Peter_Luger,https://www.yelp.com/biz/peter-luger-brooklyn-2,6199,4,4,2019,40.70986,-73.96263,New_York,New_York_City,11211,Steakhouse,https://guide.michelin.com/us/en/new-york-state/new-york/restaurant/peter-luger,1
Oxomoco,https://www.yelp.com/biz/oxomoco-brooklyn-2,439,4,3,2019,40.730057,-73.95538,New_York,New_York_City,11222,Mexican,https://guide.michelin.com/us/en/new-york-state/new-york/restaurant/oxomoco,1
The_Finch,https://www.yelp.com/biz/the-finch-clinton-hill,196,4,3,2019,40.68704,-73.96297,New_York,New_York_City,11238,American,https://guide.michelin.com/us/en/new-york-state/new-york/restaurant/the-finch,1
Faro,https://www.yelp.com/biz/faro-brooklyn,300,4,3,2019,40.707584,-73.923035,New_York,New_York_City,11237,American,https://guide.michelin.com/us/en/new-york-state/new-york/restaurant/faro,1
Blue_Duck_Tavern,https://www.yelp.com/biz/blue-duck-tavern-washington,2507,4,3,2019,38.905373,-77.05128,Washington_DC,Washington_DC,20037,American,https://guide.michelin.com/us/en/washington/washington-dc/restaurant/blue-duck-tavern,1
Tail_Up_Goat,https://www.yelp.com/biz/tail-up-goat-washington,731,4.5,3,2019,38.9235,-77.043274,Washington_DC,Washington_DC,20009,Contemporary,https://guide.michelin.com/us/en/washington/washington-dc/restaurant/tail-up-goat,1
Komi,https://www.yelp.com/biz/komi-washington,746,4.5,4,2019,38.910107,-77.03836,Washington_DC,Washington_DC,20036,Mediterranean,https://guide.michelin.com/us/en/washington/washington-dc/restaurant/komi,1
Sushi_Taro,https://www.yelp.com/biz/sushi-taro-washington,1482,4,4,2019,38.909992,-77.03834,Washington_DC,Washington_DC,20036,Japanese,https://guide.michelin.com/us/en/washington/washington-dc/restaurant/sushi-taro,1
Plume,https://www.yelp.com/biz/plume-washington,272,4,4,2019,38.906,-77.03671,Washington_DC,Washington_DC,20036,European,https://guide.michelin.com/us/en/washington/washington-dc/restaurant/plume,1
Siren_by_RW,https://www.yelp.com/biz/siren-by-rw-washington,118,4,3,2019,38.907776,-77.035446,Washington_DC,Washington_DC,20005,Seafood,https://guide.michelin.com/us/en/washington/washington-dc/restaurant/siren-by-rw,1
Bresca,https://www.yelp.com/biz/bresca-washington,360,4.5,4,2019,38.91584,-77.0321,Washington_DC,Washington_DC,20000,Contemporary,https://guide.michelin.com/us/en/washington/washington-dc/restaurant/bresca,1
The_Dabney,https://www.yelp.com/biz/the-dabney-washington,757,4.5,4,2019,38.906292,-77.024666,Washington_DC,Washington_DC,20001,American,https://guide.michelin.com/us/en/washington/washington-dc/restaurant/the-dabney,1
Métier,https://www.yelp.com/biz/m%C3%A9tier-washington-4,71,4,4,2019,38.903503,-77.0218,Washington_DC,Washington_DC,20001,Contemporary,https://guide.michelin.com/us/en/washington/washington-dc/restaurant/metier,1
Kinship,https://www.yelp.com/biz/kinship-washington,464,4.5,4,2019,38.903282,-77.0218,Washington_DC,Washington_DC,20001,Contemporary,https://guide.michelin.com/us/en/washington/washington-dc/restaurant/kinship,1
Fiola,https://www.yelp.com/biz/fiola-washington,772,4,4,2019,38.89416,-77.02032,Washington_DC,Washington_DC,20004,Italian,https://guide.michelin.com/us/en/washington/washington-dc/restaurant/fiola,1
Masseria,https://www.yelp.com/biz/masseria-washington-2,387,4,4,2019,38.909504,-76.99908,Washington_DC,Washington_DC,20002,Italian,https://guide.michelin.com/us/en/washington/washington-dc/restaurant/masseria,1
Rose's_Luxury,https://www.yelp.com/biz/roses-luxury-washington,2068,4.5,4,2019,38.88064,-76.99515,Washington_DC,Washington_DC,20003,Contemporary,https://guide.michelin.com/us/en/washington/washington-dc/restaurant/rose-s-luxury,1
Smyth,https://www.yelp.com/biz/smyth-chicago,232,4,4,2019,41.885,-87.660736,Chicago,Chicago,60607,Contemporary,https://guide.michelin.com/us/en/illinois/chicago/restaurant/smyth,2
Oriole,https://www.yelp.com/biz/oriole-chicago,326,4.5,4,2019,41.886196,-87.64513,Chicago,Chicago,60661,Contemporary,https://guide.michelin.com/us/en/illinois/chicago/restaurant/oriole,2
Acadia,https://www.yelp.com/biz/acadia-chicago,508,4,4,2019,41.85904,-87.62562,Chicago,Chicago,60616,Contemporary,https://guide.michelin.com/us/en/illinois/chicago/restaurant/acadia,2
L'Atelier_de_Joël_Robuchon,https://www.yelp.com/biz/l-atelier-de-jo%C3%ABl-robuchon-new-york-5,144,4.5,4,2019,40.742905,-74.00769,New_York,New_York_City,10011,French,https://guide.michelin.com/us/en/new-york-state/new-york/restaurant/l-atelier-de-joel-robuchon562505,2
Jungsik,https://www.yelp.com/biz/jungsik-new-york,681,4.5,4,2019,40.718685,-74.00911,New_York,New_York_City,10013,Korean,https://guide.michelin.com/us/en/new-york-state/new-york/restaurant/jungsik,2
Atera,https://www.yelp.com/biz/atera-new-york,296,4.5,4,2019,40.716797,-74.00565,New_York,New_York_City,10013,Contemporary,https://guide.michelin.com/us/en/new-york-state/new-york/restaurant/atera,2
Jean-Georges,https://www.yelp.com/biz/jean-georges-new-york-2,1930,4,4,2019,40.76907,-73.98155,New_York,New_York_City,10023,Contemporary,https://guide.michelin.com/us/en/new-york-state/new-york/restaurant/jean-georges,2
Marea,https://www.yelp.com/biz/marea-new-york,2203,4,4,2019,40.76749,-73.98114,New_York,New_York_City,10019,Seafood,https://guide.michelin.com/us/en/new-york-state/new-york/restaurant/marea,2
Gabriel_Kreuther,https://www.yelp.com/biz/gabriel-kreuther-new-york,539,4.5,4,2019,40.75397,-73.982025,New_York,New_York_City,10036,Contemporary,https://guide.michelin.com/us/en/new-york-state/new-york/restaurant/gabriel-kreuther,2
Ichimura_at_Uchū,https://www.yelp.com/biz/restaurant-ichimura-new-york,4,4.5,4,2019,40.721832,-73.99012,New_York,New_York_City,10002,Japanese,https://guide.michelin.com/us/en/new-york-state/new-york/restaurant/ichimura-at-uchu,2
Sushi_Ginza_Onodera,https://www.yelp.com/biz/sushi-ginza-onodera-new-york-2,211,4.5,4,2019,40.752396,-73.981575,New_York,New_York_City,10017,Japanese,https://guide.michelin.com/us/en/new-york-state/new-york/restaurant/sushi-ginza-onodera,2
Ko,https://www.yelp.com/biz/momofuku-ko-new-york-3,341,4.5,4,2019,40.72909,-73.98448,New_York,New_York_City,10003,Contemporary,https://guide.michelin.com/us/en/new-york-state/new-york/restaurant/ko,2
The_Modern,https://www.yelp.com/biz/the-modern-new-york-3,1051,4.5,4,2019,40.76106,-73.97628,New_York,New_York_City,10019,Contemporary,https://guide.michelin.com/us/en/new-york-state/new-york/restaurant/the-modern,2
Aquavit,https://www.yelp.com/biz/aquavit-new-york,803,4,4,2019,40.76078,-73.97214,New_York,New_York_City,10022,Scandinavian,https://guide.michelin.com/us/en/new-york-state/new-york/restaurant/aquavit,2
Daniel,https://www.yelp.com/biz/daniel-new-york-4,1715,4.5,4,2019,40.7666,-73.96745,New_York,New_York_City,10065,French,https://guide.michelin.com/us/en/new-york-state/new-york/restaurant/daniel,2
Aska,https://www.yelp.com/biz/aska-brooklyn-3,118,4.5,4,2019,40.71222,-73.96642,New_York,New_York_City,11249,Scandinavian,https://guide.michelin.com/us/en/new-york-state/new-york/restaurant/aska,2
Blanca,https://www.yelp.com/biz/blanca-brooklyn,167,4,4,2019,40.70492,-73.93354,New_York,New_York_City,11206,Contemporary,https://guide.michelin.com/us/en/new-york-state/new-york/restaurant/blanca,2
minibar,https://www.yelp.com/biz/minibar-by-jos%C3%A9-andr%C3%A9s-washington-7,357,4.5,4,2019,38.896294,-77.02386,Washington_DC,Washington_DC,20004,Contemporary,https://guide.michelin.com/us/en/washington/washington-dc/restaurant/minibar,2
Pineapple_and_Pearls,https://www.yelp.com/biz/pineapple-and-pearls-washington-3,367,4.5,4,2019,38.880707,-76.99514,Washington_DC,Washington_DC,20003,Contemporary,https://guide.michelin.com/us/en/washington/washington-dc/restaurant/pineapple-and-pearls,2
Alinea,https://www.yelp.com/biz/alinea-chicago,2376,4.5,4,2019,41.91328,-87.64798,Chicago,Chicago,60614,Contemporary,https://guide.michelin.com/us/en/illinois/chicago/restaurant/alinea,3
Masa,https://www.yelp.com/biz/masa-new-york,364,4,4,2019,40.76855,-73.98335,New_York,New_York_City,10019,Japanese,https://guide.michelin.com/us/en/new-york-state/new-york/restaurant/masa,3
Per_Se,https://www.yelp.com/biz/per-se-new-york,1721,4.5,4,2019,40.76828,-73.98292,New_York,New_York_City,10019,Contemporary,https://guide.michelin.com/us/en/new-york-state/new-york/restaurant/per-se,3
Le_Bernardin,https://www.yelp.com/biz/le-bernardin-new-york,2658,4.5,4,2019,40.76177,-73.98223,New_York,New_York_City,10019,Seafood,https://guide.michelin.com/us/en/new-york-state/new-york/restaurant/le-bernardin,3
Eleven_Madison_Park,https://www.yelp.com/biz/eleven-madison-park-new-york,2263,4.5,4,2019,40.7417,-73.98712,New_York,New_York_City,10010,Contemporary,https://guide.michelin.com/us/en/new-york-state/new-york/restaurant/eleven-madison-park,3
Chef's_Table_at_Brooklyn_Fare,https://www.yelp.com/biz/chefs-table-at-brooklyn-fare-new-york,574,4.5,4,2019,40.68872,-73.98581,New_York,New_York_City,10018,Contemporary,https://guide.michelin.com/us/en/new-york-state/new-york/restaurant/chef-s-table-at-brooklyn-fare,3
The_Inn_at_Little_Washington,https://www.yelp.com/biz/the-inn-at-little-washington-washington-4,548,4.5,4,2019,38.713623,-78.16208,Washington_DC,Washington_DC,22747,American,https://guide.michelin.com/us/en/washington/washington-dc/restaurant/the-inn-at-little-washington,3
