name,rating,review_count,price,categories,city,state,zip_code,latitude,longitude,address,url
Thursday_Kitchen,4.5,1537,2,"Korean, New_American, Tapas_SmallPlates",New York,NY,10009,40.72761,-73.98373,"424 E 9th St New York, NY 10009",https://www.yelp.com/biz/thursday-kitchen-new-york?adjust_creative=g98UKJoNIm4WCojBNMJKvA&utm_campaign=yelp_api_v3&utm_medium=api_v3_business_search&utm_source=g98UKJoNIm4WCojBNMJKvA
Joe's_Shanghai,4,6637,2,"Shanghainese, Seafood, Noodles",New York,NY,10013,40.7156608,-73.9967012,"46 Bowery St New York, NY 10013",https://www.yelp.com/biz/joes-shanghai-new-york-2?adjust_creative=g98UKJoNIm4WCojBNMJKvA&utm_campaign=yelp_api_v3&utm_medium=api_v3_business_search&utm_source=g98UKJoNIm4WCojBNMJKvA
LoveMama,4.5,5809,2,"Thai, Malaysian, Vietnamese",New York,NY,10003,40.73040872,-73.98612673,"174 2nd Ave New York, NY 10003",https://www.yelp.com/biz/lovemama-new-york?adjust_creative=g98UKJoNIm4WCojBNMJKvA&utm_campaign=yelp_api_v3&utm_medium=api_v3_business_search&utm_source=g98UKJoNIm4WCojBNMJKvA
Rubirosa,4.5,2579,2,"Italian, Pizza",New York,NY,10012,40.722766,-73.996233,"235 Mulberry St New York, NY 10012",https://www.yelp.com/biz/rubirosa-new-york-2?adjust_creative=g98UKJoNIm4WCojBNMJKvA&utm_campaign=yelp_api_v3&utm_medium=api_v3_business_search&utm_source=g98UKJoNIm4WCojBNMJKvA
Da_Andrea,4.5,1159,2,"Italian, Bars",New York,NY,10011,40.736218,-73.99597,"35 W 13th St New York, NY 10011",https://www.yelp.com/biz/da-andrea-new-york?adjust_creative=g98UKJoNIm4WCojBNMJKvA&utm_campaign=yelp_api_v3&utm_medium=api_v3_business_search&utm_source=g98UKJoNIm4WCojBNMJKvA
The_Cabin_NYC,4,402,2,"New_American, Cocktail_Bars, Breakfast_and_Brunch",New York,NY,10009,40.72393,-73.98383,"205 E 4th St New York, NY 10009",https://www.yelp.com/biz/the-cabin-nyc-new-york-2?adjust_creative=g98UKJoNIm4WCojBNMJKvA&utm_campaign=yelp_api_v3&utm_medium=api_v3_business_search&utm_source=g98UKJoNIm4WCojBNMJKvA
Gelso_&_Grand,4.5,1179,2,"Italian, Pasta_Shops, Pizza",New York,NY,10013,40.71940895,-73.99737779,"186 Grand St New York, NY 10013",https://www.yelp.com/biz/gelso-and-grand-new-york?adjust_creative=g98UKJoNIm4WCojBNMJKvA&utm_campaign=yelp_api_v3&utm_medium=api_v3_business_search&utm_source=g98UKJoNIm4WCojBNMJKvA
Anytime,4.5,1928,2,"Korean, Tapas_SmallPlates, Burgers",New York,NY,10001,40.74776271,-73.98677936,"23 W 32nd St Fl 3 New York, NY 10001",https://www.yelp.com/biz/anytime-new-york-2?adjust_creative=g98UKJoNIm4WCojBNMJKvA&utm_campaign=yelp_api_v3&utm_medium=api_v3_business_search&utm_source=g98UKJoNIm4WCojBNMJKvA
The_Wild_Son_Lunch_Counter,4.5,548,2,"New_American, Sandwiches, Breakfast_and_Brunch",New York,NY,10009,40.72737,-73.98525,"130 First Ave New York, NY 10009",https://www.yelp.com/biz/the-wild-son-lunch-counter-new-york?adjust_creative=g98UKJoNIm4WCojBNMJKvA&utm_campaign=yelp_api_v3&utm_medium=api_v3_business_search&utm_source=g98UKJoNIm4WCojBNMJKvA
Jane_Restaurant,4,3315,2,"Breakfast_and_Brunch, New_American, Bars",New York,NY,10012,40.7273779,-74.00025,"100 W Houston St New York, NY 10012",https://www.yelp.com/biz/jane-restaurant-new-york?adjust_creative=g98UKJoNIm4WCojBNMJKvA&utm_campaign=yelp_api_v3&utm_medium=api_v3_business_search&utm_source=g98UKJoNIm4WCojBNMJKvA
Sunday_in_Brooklyn,4,1033,2,"New_American, Breakfast_and_Brunch, Cocktail_Bars",Brooklyn,NY,11249,40.71418124,-73.9653281,"348 Wythe Ave Brooklyn, NY 11249",https://www.yelp.com/biz/sunday-in-brooklyn-brooklyn-6?adjust_creative=g98UKJoNIm4WCojBNMJKvA&utm_campaign=yelp_api_v3&utm_medium=api_v3_business_search&utm_source=g98UKJoNIm4WCojBNMJKvA
Salt_+_Charcoal,4,628,2,"Japanese, Steakhouses, Wine_Bars",Brooklyn,NY,11249,40.71453,-73.9613511,"171 Grand St Brooklyn, NY 11249",https://www.yelp.com/biz/salt-charcoal-brooklyn?adjust_creative=g98UKJoNIm4WCojBNMJKvA&utm_campaign=yelp_api_v3&utm_medium=api_v3_business_search&utm_source=g98UKJoNIm4WCojBNMJKvA
Raku,4.5,1289,2,"Japanese, Noodles",New York,NY,10003,40.72649881,-73.98665261,"342 E 6th St New York, NY 10003",https://www.yelp.com/biz/raku-new-york-7?adjust_creative=g98UKJoNIm4WCojBNMJKvA&utm_campaign=yelp_api_v3&utm_medium=api_v3_business_search&utm_source=g98UKJoNIm4WCojBNMJKvA
AlMar,4,466,2,"Italian, Breakfast_and_Brunch, Cocktail_Bars",Brooklyn,NY,11201,40.702662,-73.989177,"111 Front St Brooklyn, NY 11201",https://www.yelp.com/biz/almar-brooklyn-2?adjust_creative=g98UKJoNIm4WCojBNMJKvA&utm_campaign=yelp_api_v3&utm_medium=api_v3_business_search&utm_source=g98UKJoNIm4WCojBNMJKvA
Sweet_Chick,4,1771,2,"Southern, Breakfast_and_Brunch, New_American",New York,NY,10002,40.7217399,-73.98739,"178 Ludlow St New York, NY 10002",https://www.yelp.com/biz/sweet-chick-new-york?adjust_creative=g98UKJoNIm4WCojBNMJKvA&utm_campaign=yelp_api_v3&utm_medium=api_v3_business_search&utm_source=g98UKJoNIm4WCojBNMJKvA
Amélie,4.5,2778,3,"French, Wine_Bars",New York,NY,10011,40.7327,-73.99766,"22 W 8th St New York, NY 10011",https://www.yelp.com/biz/am%C3%A9lie-new-york?adjust_creative=g98UKJoNIm4WCojBNMJKvA&utm_campaign=yelp_api_v3&utm_medium=api_v3_business_search&utm_source=g98UKJoNIm4WCojBNMJKvA
Benemon,4.5,642,2,"Japanese, Tapas_SmallPlates, Bars",New York,NY,10003,40.72551,-73.98838,"108 E 4th St New York, NY 10003",https://www.yelp.com/biz/benemon-new-york?adjust_creative=g98UKJoNIm4WCojBNMJKvA&utm_campaign=yelp_api_v3&utm_medium=api_v3_business_search&utm_source=g98UKJoNIm4WCojBNMJKvA
Crab_House_All_You_Can_Eat_Seafood,4.5,327,4,"Buffets, Seafood, Cajun_Creole",New York,NY,10022,40.759664,-73.969776,"135 E 55th St New York, NY 10022",https://www.yelp.com/biz/crab-house-all-you-can-eat-seafood-new-york?adjust_creative=g98UKJoNIm4WCojBNMJKvA&utm_campaign=yelp_api_v3&utm_medium=api_v3_business_search&utm_source=g98UKJoNIm4WCojBNMJKvA
Olio_e_Più,4.5,3116,2,"Pizza, Italian, Cocktail_Bars",New York,NY,10014,40.73379804,-73.99977393,"3 Greenwich Ave New York, NY 10014",https://www.yelp.com/biz/olio-e-pi%C3%B9-new-york-7?adjust_creative=g98UKJoNIm4WCojBNMJKvA&utm_campaign=yelp_api_v3&utm_medium=api_v3_business_search&utm_source=g98UKJoNIm4WCojBNMJKvA
Cafe_Mogador,4.5,1255,2,"Moroccan, Breakfast_and_Brunch, Mediterranean",Brooklyn,NY,11211,40.719747,-73.959993,"133 Wythe Ave Brooklyn, NY 11211",https://www.yelp.com/biz/cafe-mogador-brooklyn?adjust_creative=g98UKJoNIm4WCojBNMJKvA&utm_campaign=yelp_api_v3&utm_medium=api_v3_business_search&utm_source=g98UKJoNIm4WCojBNMJKvA
RH_Rooftop_Restaurant_New_York,4,547,3,"American_Traditional, Wine_Bars",New York,NY,10014,40.73985,-74.00639,"9 9th Ave New York, NY 10014",https://www.yelp.com/biz/rh-rooftop-restaurant-new-york-new-york-2?adjust_creative=g98UKJoNIm4WCojBNMJKvA&utm_campaign=yelp_api_v3&utm_medium=api_v3_business_search&utm_source=g98UKJoNIm4WCojBNMJKvA
5ive_Spice,4.5,500,2,"Vietnamese, Tacos, Sandwiches",New York,NY,10012,40.722598,-73.996272,"227 Mulberry St New York, NY 10012",https://www.yelp.com/biz/5ive-spice-new-york-2?adjust_creative=g98UKJoNIm4WCojBNMJKvA&utm_campaign=yelp_api_v3&utm_medium=api_v3_business_search&utm_source=g98UKJoNIm4WCojBNMJKvA
1803,4,618,2,"Cajun_Creole, Seafood, Bars",New York,NY,10007,40.715498,-74.007178,"82 Reade St New York, NY 10007",https://www.yelp.com/biz/1803-new-york?adjust_creative=g98UKJoNIm4WCojBNMJKvA&utm_campaign=yelp_api_v3&utm_medium=api_v3_business_search&utm_source=g98UKJoNIm4WCojBNMJKvA
CHILI,5,197,2,"Szechuan, Dimsum, Cocktail_Bars",New York,NY,10016,40.75002,-73.98215,"13 E 37th St New York, NY 10016",https://www.yelp.com/biz/chili-new-york?adjust_creative=g98UKJoNIm4WCojBNMJKvA&utm_campaign=yelp_api_v3&utm_medium=api_v3_business_search&utm_source=g98UKJoNIm4WCojBNMJKvA
The_Four_Horsemen,4.5,235,2,"Wine_Bars, New_American",Brooklyn,NY,11211,40.71305,-73.95732,"295 Grand St Brooklyn, NY 11211",https://www.yelp.com/biz/the-four-horsemen-brooklyn?adjust_creative=g98UKJoNIm4WCojBNMJKvA&utm_campaign=yelp_api_v3&utm_medium=api_v3_business_search&utm_source=g98UKJoNIm4WCojBNMJKvA
Malibu_Farm_New_York,4,230,2,"New_American, Beer_and_Wine",New York,NY,10038,40.70576508,-74.00150903,"89 South St Pier 17 New York, NY 10038",https://www.yelp.com/biz/malibu-farm-new-york-new-york-2?adjust_creative=g98UKJoNIm4WCojBNMJKvA&utm_campaign=yelp_api_v3&utm_medium=api_v3_business_search&utm_source=g98UKJoNIm4WCojBNMJKvA
Momofuku_Ssam_Bar,4,60,3,"Asian_Fusion, New_American, Steakhouses",New York,NY,10038,40.70547602,-74.0016428,"89 South St Pier 17 New York, NY 10038",https://www.yelp.com/biz/momofuku-ssam-bar-new-york-6?adjust_creative=g98UKJoNIm4WCojBNMJKvA&utm_campaign=yelp_api_v3&utm_medium=api_v3_business_search&utm_source=g98UKJoNIm4WCojBNMJKvA
Piccola_Cucina_Osteria,4.5,627,2,Italian,New York City,NY,10012,40.72506,-74.00322,"196 Spring St New York City, NY 10012",https://www.yelp.com/biz/piccola-cucina-osteria-new-york-city?adjust_creative=g98UKJoNIm4WCojBNMJKvA&utm_campaign=yelp_api_v3&utm_medium=api_v3_business_search&utm_source=g98UKJoNIm4WCojBNMJKvA
Thai_Villa,4.5,4020,2,Thai,New York,NY,10003,40.73902,-73.99065,"5 E 19th St G Floor New York, NY 10003",https://www.yelp.com/biz/thai-villa-new-york-2?adjust_creative=g98UKJoNIm4WCojBNMJKvA&utm_campaign=yelp_api_v3&utm_medium=api_v3_business_search&utm_source=g98UKJoNIm4WCojBNMJKvA
Noodle_Village,4,1251,2,"Chinese, Noodles",New York,NY,10013,40.714167,-73.998803,"13 Mott St New York, NY 10013",https://www.yelp.com/biz/noodle-village-new-york-7?adjust_creative=g98UKJoNIm4WCojBNMJKvA&utm_campaign=yelp_api_v3&utm_medium=api_v3_business_search&utm_source=g98UKJoNIm4WCojBNMJKvA
Time_Out_Market_New_York,3.5,327,2,Food_Court,Brooklyn,NY,11201,40.70342863,-73.99214637,"55 Water St Brooklyn, NY 11201",https://www.yelp.com/biz/time-out-market-new-york-brooklyn?adjust_creative=g98UKJoNIm4WCojBNMJKvA&utm_campaign=yelp_api_v3&utm_medium=api_v3_business_search&utm_source=g98UKJoNIm4WCojBNMJKvA
3_Times,4.5,175,2,"Dimsum, Shanghainese, Noodles",New York,NY,10002,40.718271,-73.985209,"90 Clinton St New York, NY 10002",https://www.yelp.com/biz/3-times-new-york-5?adjust_creative=g98UKJoNIm4WCojBNMJKvA&utm_campaign=yelp_api_v3&utm_medium=api_v3_business_search&utm_source=g98UKJoNIm4WCojBNMJKvA
The_Osprey,4,248,2,New_American,Brooklyn,NY,11201,40.702241,-73.995539,"60 Furman St Brooklyn, NY 11201",https://www.yelp.com/biz/the-osprey-brooklyn?adjust_creative=g98UKJoNIm4WCojBNMJKvA&utm_campaign=yelp_api_v3&utm_medium=api_v3_business_search&utm_source=g98UKJoNIm4WCojBNMJKvA
Al_Badawi,5,30,2,Middle_Eastern,Brooklyn,NY,11201,40.69059,-73.99503,"151 Atlantic Ave Brooklyn, NY 11201",https://www.yelp.com/biz/al-badawi-brooklyn-2?adjust_creative=g98UKJoNIm4WCojBNMJKvA&utm_campaign=yelp_api_v3&utm_medium=api_v3_business_search&utm_source=g98UKJoNIm4WCojBNMJKvA
Raku,4.5,616,2,"Japanese, Noodles",New York,NY,10012,40.72728,-74.00252,"48 Macdougal St New York, NY 10012",https://www.yelp.com/biz/raku-new-york-6?adjust_creative=g98UKJoNIm4WCojBNMJKvA&utm_campaign=yelp_api_v3&utm_medium=api_v3_business_search&utm_source=g98UKJoNIm4WCojBNMJKvA
Juliana's,4.5,2406,2,Pizza,Brooklyn,NY,11201,40.70274719,-73.9934349,"19 Old Fulton St Brooklyn, NY 11201",https://www.yelp.com/biz/julianas-brooklyn-3?adjust_creative=g98UKJoNIm4WCojBNMJKvA&utm_campaign=yelp_api_v3&utm_medium=api_v3_business_search&utm_source=g98UKJoNIm4WCojBNMJKvA
Pastis,4,346,3,French,New York,NY,10014,40.73928,-74.00695,"52 Gansevoort St New York, NY 10014",https://www.yelp.com/biz/pastis-new-york-3?adjust_creative=g98UKJoNIm4WCojBNMJKvA&utm_campaign=yelp_api_v3&utm_medium=api_v3_business_search&utm_source=g98UKJoNIm4WCojBNMJKvA
Atrium_Dumbo,4,682,2,"New_American, French, Bars",Brooklyn,NY,11201,40.7033899,-73.9904923,"15 Main St Brooklyn, NY 11201",https://www.yelp.com/biz/atrium-dumbo-brooklyn?adjust_creative=g98UKJoNIm4WCojBNMJKvA&utm_campaign=yelp_api_v3&utm_medium=api_v3_business_search&utm_source=g98UKJoNIm4WCojBNMJKvA
Nyonya,4,2208,2,"Malaysian, Chinese",New York,NY,10013,40.71911697,-73.99683229,"199 Grand St New York, NY 10013",https://www.yelp.com/biz/nyonya-new-york?adjust_creative=g98UKJoNIm4WCojBNMJKvA&utm_campaign=yelp_api_v3&utm_medium=api_v3_business_search&utm_source=g98UKJoNIm4WCojBNMJKvA
Fishmarket_Restaurant,4.5,586,2,"Seafood, Dive_Bars, Malaysian",New York,NY,10038,40.70717,-74.00192,"111 South St New York, NY 10038",https://www.yelp.com/biz/fishmarket-restaurant-new-york?adjust_creative=g98UKJoNIm4WCojBNMJKvA&utm_campaign=yelp_api_v3&utm_medium=api_v3_business_search&utm_source=g98UKJoNIm4WCojBNMJKvA
nonono,4,963,3,"Tapas_SmallPlates, Izakaya, Ramen",New York,NY,10016,40.74545,-73.98499,"118 Madison Ave New York, NY 10016",https://www.yelp.com/biz/nonono-new-york-6?adjust_creative=g98UKJoNIm4WCojBNMJKvA&utm_campaign=yelp_api_v3&utm_medium=api_v3_business_search&utm_source=g98UKJoNIm4WCojBNMJKvA
Balthazar,4,3300,3,"French, Breakfast_and_Brunch",New York,NY,10012,40.7226893,-73.99821492,"80 Spring St New York, NY 10012",https://www.yelp.com/biz/balthazar-new-york-2?adjust_creative=g98UKJoNIm4WCojBNMJKvA&utm_campaign=yelp_api_v3&utm_medium=api_v3_business_search&utm_source=g98UKJoNIm4WCojBNMJKvA
Excuse_My_French,4.5,325,2,"Bars, Tapas_Bars, French",New York,NY,10002,40.718437,-73.989807,"96 Orchard St New York, NY 10002",https://www.yelp.com/biz/excuse-my-french-new-york?adjust_creative=g98UKJoNIm4WCojBNMJKvA&utm_campaign=yelp_api_v3&utm_medium=api_v3_business_search&utm_source=g98UKJoNIm4WCojBNMJKvA
Izakaya_MEW,4,2559,2,"Tapas_Bars, Sushi_Bars, Izakaya",New York,NY,10001,40.750148,-73.98632035,"53 W 35th St New York, NY 10001",https://www.yelp.com/biz/izakaya-mew-new-york-3?adjust_creative=g98UKJoNIm4WCojBNMJKvA&utm_campaign=yelp_api_v3&utm_medium=api_v3_business_search&utm_source=g98UKJoNIm4WCojBNMJKvA
Wayla,4.5,471,2,Thai,New York,NY,10002,40.7183,-73.9926038,"100 Forsyth St Basement New York, NY 10002",https://www.yelp.com/biz/wayla-new-york?adjust_creative=g98UKJoNIm4WCojBNMJKvA&utm_campaign=yelp_api_v3&utm_medium=api_v3_business_search&utm_source=g98UKJoNIm4WCojBNMJKvA
Boqueria_Soho,4,1132,2,"Spanish, Tapas_Bars, Tapas_SmallPlates",New York,NY,10012,40.724912,-74.0021299,"171 Spring St New York, NY 10012",https://www.yelp.com/biz/boqueria-soho-new-york-2?adjust_creative=g98UKJoNIm4WCojBNMJKvA&utm_campaign=yelp_api_v3&utm_medium=api_v3_business_search&utm_source=g98UKJoNIm4WCojBNMJKvA
hanon,4.5,242,2,"Japanese, Noodles",Brooklyn,NY,11211,40.7134488,-73.9513445,"436 Union Ave Brooklyn, NY 11211",https://www.yelp.com/biz/hanon-brooklyn?adjust_creative=g98UKJoNIm4WCojBNMJKvA&utm_campaign=yelp_api_v3&utm_medium=api_v3_business_search&utm_source=g98UKJoNIm4WCojBNMJKvA
JeJu_Noodle_Bar,4.5,733,2,"Korean, Noodles, Cocktail_Bars",New York,NY,10014,40.73304,-74.00734,"679 Greenwich St New York, NY 10014",https://www.yelp.com/biz/jeju-noodle-bar-new-york?adjust_creative=g98UKJoNIm4WCojBNMJKvA&utm_campaign=yelp_api_v3&utm_medium=api_v3_business_search&utm_source=g98UKJoNIm4WCojBNMJKvA
Buvette,4,1928,2,"French, Wine_Bars, Cocktail_Bars",New York,NY,10014,40.732704,-74.00434641,"42 Grove St New York, NY 10014",https://www.yelp.com/biz/buvette-new-york?adjust_creative=g98UKJoNIm4WCojBNMJKvA&utm_campaign=yelp_api_v3&utm_medium=api_v3_business_search&utm_source=g98UKJoNIm4WCojBNMJKvA
Fish_Cheeks,4.5,965,2,"Seafood, Thai, Live_Raw_Food",New York,NY,10012,40.7258,-73.9927,"55 Bond St New York, NY 10012",https://www.yelp.com/biz/fish-cheeks-new-york?adjust_creative=g98UKJoNIm4WCojBNMJKvA&utm_campaign=yelp_api_v3&utm_medium=api_v3_business_search&utm_source=g98UKJoNIm4WCojBNMJKvA
Tasty_Hand-Pulled_Noodles,4,1697,2,"Chinese, Noodles",New York,NY,10013,40.7142,-73.99787,"1 Doyers St New York, NY 10013",https://www.yelp.com/biz/tasty-hand-pulled-noodles-new-york?adjust_creative=g98UKJoNIm4WCojBNMJKvA&utm_campaign=yelp_api_v3&utm_medium=api_v3_business_search&utm_source=g98UKJoNIm4WCojBNMJKvA
Fish_Cheeks,4.5,965,2,"Seafood, Thai, Live_Raw_Food",New York,NY,10012,40.7258,-73.9927,"55 Bond St New York, NY 10012",https://www.yelp.com/biz/fish-cheeks-new-york?adjust_creative=g98UKJoNIm4WCojBNMJKvA&utm_campaign=yelp_api_v3&utm_medium=api_v3_business_search&utm_source=g98UKJoNIm4WCojBNMJKvA
Pig_and_Khao,4,1744,3,"Filipino, Thai, Pan_Asian",New York,NY,10002,40.71926,-73.98475,"68 Clinton St New York, NY 10002",https://www.yelp.com/biz/pig-and-khao-new-york?adjust_creative=g98UKJoNIm4WCojBNMJKvA&utm_campaign=yelp_api_v3&utm_medium=api_v3_business_search&utm_source=g98UKJoNIm4WCojBNMJKvA
Evelina,4.5,255,3,Italian,Brooklyn,NY,11205,40.689722,-73.971003,"211 Dekalb Ave Brooklyn, NY 11205",https://www.yelp.com/biz/evelina-brooklyn-2?adjust_creative=g98UKJoNIm4WCojBNMJKvA&utm_campaign=yelp_api_v3&utm_medium=api_v3_business_search&utm_source=g98UKJoNIm4WCojBNMJKvA
DOMODOMO_New_York,4.5,1336,3,"Japanese, Sushi_Bars",New York,NY,10012,40.7280299,-74.00167,"140 W Houston St New York, NY 10012",https://www.yelp.com/biz/domodomo-new-york-new-york-4?adjust_creative=g98UKJoNIm4WCojBNMJKvA&utm_campaign=yelp_api_v3&utm_medium=api_v3_business_search&utm_source=g98UKJoNIm4WCojBNMJKvA
Ichibantei,4,247,2,"Japanese, Steakhouses",New York,NY,10009,40.73063,-73.98275,"401 E 13th St New York, NY 10009",https://www.yelp.com/biz/ichibantei-new-york?adjust_creative=g98UKJoNIm4WCojBNMJKvA&utm_campaign=yelp_api_v3&utm_medium=api_v3_business_search&utm_source=g98UKJoNIm4WCojBNMJKvA
Paesano_of_Mulberry_Street,4,1145,2,"Italian, Salad, Seafood",New York,NY,10013,40.718554,-73.997447,"136 Mulberry St New York, NY 10013",https://www.yelp.com/biz/paesano-of-mulberry-street-new-york?adjust_creative=g98UKJoNIm4WCojBNMJKvA&utm_campaign=yelp_api_v3&utm_medium=api_v3_business_search&utm_source=g98UKJoNIm4WCojBNMJKvA
Her_Name_Is_Han,4.5,1465,2,"Korean, Breakfast_and_Brunch, Cocktail_Bars",New York,NY,10016,40.7462616,-73.98473358,"17 E 31st St New York, NY 10016",https://www.yelp.com/biz/her-name-is-han-new-york-3?adjust_creative=g98UKJoNIm4WCojBNMJKvA&utm_campaign=yelp_api_v3&utm_medium=api_v3_business_search&utm_source=g98UKJoNIm4WCojBNMJKvA
Otis,5,408,3,"New_American, Cocktail_Bars",Brooklyn,NY,11206,40.706011,-73.932598,"18 Harrison Pl Brooklyn, NY 11206",https://www.yelp.com/biz/otis-brooklyn-2?adjust_creative=g98UKJoNIm4WCojBNMJKvA&utm_campaign=yelp_api_v3&utm_medium=api_v3_business_search&utm_source=g98UKJoNIm4WCojBNMJKvA
Uluh,4.5,647,3,"Tea_Rooms, Asian_Fusion, Szechuan",New York,NY,10003,40.7293403,-73.9866071,"152 2nd Ave Ste A New York, NY 10003",https://www.yelp.com/biz/uluh-new-york?adjust_creative=g98UKJoNIm4WCojBNMJKvA&utm_campaign=yelp_api_v3&utm_medium=api_v3_business_search&utm_source=g98UKJoNIm4WCojBNMJKvA
San_Marzano_Pasta_Fresca,4,1345,2,"Italian, Bars, Breakfast_and_Brunch",New York,NY,10003,40.727966,-73.988382,"117 Second Ave New York, NY 10003",https://www.yelp.com/biz/san-marzano-pasta-fresca-new-york?adjust_creative=g98UKJoNIm4WCojBNMJKvA&utm_campaign=yelp_api_v3&utm_medium=api_v3_business_search&utm_source=g98UKJoNIm4WCojBNMJKvA
Ruby's_Cafe,4.5,234,2,"Australian, Breakfast_and_Brunch, Sandwiches",New York,NY,10003,40.730932,-73.988061,"198 E 11th St New York, NY 10003",https://www.yelp.com/biz/rubys-cafe-new-york-5?adjust_creative=g98UKJoNIm4WCojBNMJKvA&utm_campaign=yelp_api_v3&utm_medium=api_v3_business_search&utm_source=g98UKJoNIm4WCojBNMJKvA
La_Contenta,4.5,821,2,"Mexican, Bars, Breakfast_and_Brunch",New York,NY,10002,40.71873,-73.98691,"102 Norfolk St New York, NY 10002",https://www.yelp.com/biz/la-contenta-new-york?adjust_creative=g98UKJoNIm4WCojBNMJKvA&utm_campaign=yelp_api_v3&utm_medium=api_v3_business_search&utm_source=g98UKJoNIm4WCojBNMJKvA
Rabbithole_Restaurant,4,882,2,"New_American, Breakfast_and_Brunch, Cocktail_Bars",Brooklyn,NY,11211,40.71229328,-73.96286879,"352 Bedford Ave Brooklyn, NY 11211",https://www.yelp.com/biz/rabbithole-restaurant-brooklyn?adjust_creative=g98UKJoNIm4WCojBNMJKvA&utm_campaign=yelp_api_v3&utm_medium=api_v3_business_search&utm_source=g98UKJoNIm4WCojBNMJKvA
Upstate_Craft_Beer_&_Oyster_Bar,4.5,1954,2,Seafood,New York,NY,10003,40.726373,-73.986557,"95 1st Ave New York, NY 10003",https://www.yelp.com/biz/upstate-craft-beer-and-oyster-bar-new-york-4?adjust_creative=g98UKJoNIm4WCojBNMJKvA&utm_campaign=yelp_api_v3&utm_medium=api_v3_business_search&utm_source=g98UKJoNIm4WCojBNMJKvA
The_Leroy_House,4.5,141,3,"New_American, Cocktail_Bars",New York,NY,10014,40.73063,-74.00661,"430 Hudson St New York, NY 10014",https://www.yelp.com/biz/the-leroy-house-new-york-5?adjust_creative=g98UKJoNIm4WCojBNMJKvA&utm_campaign=yelp_api_v3&utm_medium=api_v3_business_search&utm_source=g98UKJoNIm4WCojBNMJKvA
Don_Angie,4.5,501,3,"Italian, New_American",New York,NY,10014,40.73778,-74.00197,"103 Greenwich Ave New York, NY 10014",https://www.yelp.com/biz/don-angie-new-york?adjust_creative=g98UKJoNIm4WCojBNMJKvA&utm_campaign=yelp_api_v3&utm_medium=api_v3_business_search&utm_source=g98UKJoNIm4WCojBNMJKvA
Soothr,4.5,425,2,"Thai, Noodles, Cocktail_Bars",New York,NY,10003,40.732259,-73.987363,"204 E 13th St New York, NY 10003",https://www.yelp.com/biz/soothr-new-york-2?adjust_creative=g98UKJoNIm4WCojBNMJKvA&utm_campaign=yelp_api_v3&utm_medium=api_v3_business_search&utm_source=g98UKJoNIm4WCojBNMJKvA
Kimura,4.5,216,2,"Japanese, Hot_Pot",New York,NY,10003,40.728995,-73.988279,"31 St Marks Pl New York, NY 10003",https://www.yelp.com/biz/kimura-new-york?adjust_creative=g98UKJoNIm4WCojBNMJKvA&utm_campaign=yelp_api_v3&utm_medium=api_v3_business_search&utm_source=g98UKJoNIm4WCojBNMJKvA
Les_Enfants_de_Boheme,4.5,295,2,"French, Cocktail_Bars, Wine_Bars",New York,NY,10002,40.7136187,-73.9888503,"177 Henry St New York, NY 10002",https://www.yelp.com/biz/les-enfants-de-boheme-new-york?adjust_creative=g98UKJoNIm4WCojBNMJKvA&utm_campaign=yelp_api_v3&utm_medium=api_v3_business_search&utm_source=g98UKJoNIm4WCojBNMJKvA
Silver_Factory,4.5,241,2,"Korean, Bars",Brooklyn,NY,11211,40.709227,-73.958598,"270 South 5th St Brooklyn, NY 11211",https://www.yelp.com/biz/silver-factory-brooklyn?adjust_creative=g98UKJoNIm4WCojBNMJKvA&utm_campaign=yelp_api_v3&utm_medium=api_v3_business_search&utm_source=g98UKJoNIm4WCojBNMJKvA
While_We_Were_Young,4,390,2,"New_American, Cocktail_Bars",New York,NY,10014,40.73437,-74.00272,"183 W 10th St New York, NY 10014",https://www.yelp.com/biz/while-we-were-young-new-york?adjust_creative=g98UKJoNIm4WCojBNMJKvA&utm_campaign=yelp_api_v3&utm_medium=api_v3_business_search&utm_source=g98UKJoNIm4WCojBNMJKvA
Pomp_&_Circumstance_Dining,5,106,2,"Italian, Mediterranean, Middle_Eastern",Williamsburg,NY,11211,40.714166,-73.949612,"577 Lorimer St Williamsburg, NY 11211",https://www.yelp.com/biz/pomp-and-circumstance-dining-williamsburg?adjust_creative=g98UKJoNIm4WCojBNMJKvA&utm_campaign=yelp_api_v3&utm_medium=api_v3_business_search&utm_source=g98UKJoNIm4WCojBNMJKvA
Boucherie_West_Village,4.5,1967,3,"French, Cocktail_Bars, Steakhouses",New York,NY,10014,40.733063,-74.0028772,"99 7th Ave S New York, NY 10014",https://www.yelp.com/biz/boucherie-west-village-new-york-3?adjust_creative=g98UKJoNIm4WCojBNMJKvA&utm_campaign=yelp_api_v3&utm_medium=api_v3_business_search&utm_source=g98UKJoNIm4WCojBNMJKvA
Lilia,4,960,3,"Italian, Cocktail_Bars",Brooklyn,NY,11211,40.71757,-73.95236,"567 Union Ave Brooklyn, NY 11211",https://www.yelp.com/biz/lilia-brooklyn?adjust_creative=g98UKJoNIm4WCojBNMJKvA&utm_campaign=yelp_api_v3&utm_medium=api_v3_business_search&utm_source=g98UKJoNIm4WCojBNMJKvA
Very_Fresh_Noodles,4.5,1163,2,"Taiwanese, Chinese, Noodles",New York,NY,10011,40.74207,-74.00565,"409 W 15th St New York, NY 10011",https://www.yelp.com/biz/very-fresh-noodles-new-york?adjust_creative=g98UKJoNIm4WCojBNMJKvA&utm_campaign=yelp_api_v3&utm_medium=api_v3_business_search&utm_source=g98UKJoNIm4WCojBNMJKvA
Taboonette,4.5,916,2,"Mediterranean, Middle_Eastern, New_American",New York,NY,10003,40.73460388,-73.99282837,"30 E 13th St New York, NY 10003",https://www.yelp.com/biz/taboonette-new-york?adjust_creative=g98UKJoNIm4WCojBNMJKvA&utm_campaign=yelp_api_v3&utm_medium=api_v3_business_search&utm_source=g98UKJoNIm4WCojBNMJKvA
Ippudo_NY,4,10202,2,Ramen,New York,NY,10003,40.73092,-73.99015,"65 4th Ave New York, NY 10003",https://www.yelp.com/biz/ippudo-ny-new-york-7?adjust_creative=g98UKJoNIm4WCojBNMJKvA&utm_campaign=yelp_api_v3&utm_medium=api_v3_business_search&utm_source=g98UKJoNIm4WCojBNMJKvA
Banter,4.5,542,2,"Breakfast_and_Brunch, Coffee_and_Tea, Sandwiches",New York,NY,10012,40.72787,-74.0010999,"169 Sullivan St New York, NY 10012",https://www.yelp.com/biz/banter-new-york?adjust_creative=g98UKJoNIm4WCojBNMJKvA&utm_campaign=yelp_api_v3&utm_medium=api_v3_business_search&utm_source=g98UKJoNIm4WCojBNMJKvA
Hole_In_The_Wall,4.5,81,2,"Australian, Breakfast_and_Brunch, Coffee_and_Tea",Brooklyn,NY,11249,40.71444506,-73.9615832,"292 Bedford Ave Brooklyn, NY 11249",https://www.yelp.com/biz/hole-in-the-wall-williamsburg-brooklyn?adjust_creative=g98UKJoNIm4WCojBNMJKvA&utm_campaign=yelp_api_v3&utm_medium=api_v3_business_search&utm_source=g98UKJoNIm4WCojBNMJKvA
Shuka,4.5,678,3,"Mediterranean, Cocktail_Bars",New York,NY,10012,40.72707,-74.00283,"38 MacDougal St New York, NY 10012",https://www.yelp.com/biz/shuka-new-york-3?adjust_creative=g98UKJoNIm4WCojBNMJKvA&utm_campaign=yelp_api_v3&utm_medium=api_v3_business_search&utm_source=g98UKJoNIm4WCojBNMJKvA
Kopitiam,4,831,2,"Malaysian, Desserts, Breakfast_and_Brunch",New York,NY,10002,40.71387,-73.99091,"151 E Broadway New York, NY 10002",https://www.yelp.com/biz/kopitiam-new-york?adjust_creative=g98UKJoNIm4WCojBNMJKvA&utm_campaign=yelp_api_v3&utm_medium=api_v3_business_search&utm_source=g98UKJoNIm4WCojBNMJKvA
Hole_In_The_Wall,4.5,656,2,"Breakfast_and_Brunch, Coffee_and_Tea, Australian",New York,NY,10038,40.70838969,-74.00578178,"15 Cliff St New York, NY 10038",https://www.yelp.com/biz/hole-in-the-wall-new-york-12?adjust_creative=g98UKJoNIm4WCojBNMJKvA&utm_campaign=yelp_api_v3&utm_medium=api_v3_business_search&utm_source=g98UKJoNIm4WCojBNMJKvA
Bohemian_Restaurant,4.5,802,3,"Japanese, Cocktail_Bars",New York,NY,10012,40.72639,-73.99236,"57 Great Jones St New York, NY 10012",https://www.yelp.com/biz/bohemian-restaurant-new-york?adjust_creative=g98UKJoNIm4WCojBNMJKvA&utm_campaign=yelp_api_v3&utm_medium=api_v3_business_search&utm_source=g98UKJoNIm4WCojBNMJKvA
Wayan,4.5,404,3,"Indonesian, French, Breakfast_and_Brunch",New York,NY,10012,40.72138131,-73.99507577,"20 Spring St New York, NY 10012",https://www.yelp.com/biz/wayan-new-york-4?adjust_creative=g98UKJoNIm4WCojBNMJKvA&utm_campaign=yelp_api_v3&utm_medium=api_v3_business_search&utm_source=g98UKJoNIm4WCojBNMJKvA
Luke's_Lobster_Brooklyn_Bridge_Park,4,369,2,Seafood,Brooklyn,NY,11201,40.70359,-73.99411,"11 Water St Brooklyn, NY 11201",https://www.yelp.com/biz/lukes-lobster-brooklyn-bridge-park-brooklyn-2?adjust_creative=g98UKJoNIm4WCojBNMJKvA&utm_campaign=yelp_api_v3&utm_medium=api_v3_business_search&utm_source=g98UKJoNIm4WCojBNMJKvA
Root_&_Bone,4,1668,2,"Southern, Breakfast_and_Brunch, Salad",New York,NY,10009,40.72280799,-73.98335358,"200 E 3rd St New York, NY 10009",https://www.yelp.com/biz/root-and-bone-new-york?adjust_creative=g98UKJoNIm4WCojBNMJKvA&utm_campaign=yelp_api_v3&utm_medium=api_v3_business_search&utm_source=g98UKJoNIm4WCojBNMJKvA
Shanghai_21,4,1819,2,Shanghainese,New York,NY,10013,40.71441,-73.99902,"21 Mott St New York, NY 10013",https://www.yelp.com/biz/shanghai-21-new-york-2?adjust_creative=g98UKJoNIm4WCojBNMJKvA&utm_campaign=yelp_api_v3&utm_medium=api_v3_business_search&utm_source=g98UKJoNIm4WCojBNMJKvA
Tsurutontan_Udon_Noodle_Brasserie,4,2096,2,"Japanese, Noodles, Soup",New York,NY,10003,40.73678,-73.9910699,"21 E 16th St New York, NY 10003",https://www.yelp.com/biz/tsurutontan-udon-noodle-brasserie-new-york?adjust_creative=g98UKJoNIm4WCojBNMJKvA&utm_campaign=yelp_api_v3&utm_medium=api_v3_business_search&utm_source=g98UKJoNIm4WCojBNMJKvA
Em_Vietnamese_Bistro,4.5,85,2,"Vietnamese, Noodles, Sandwiches",Brooklyn,NY,11201,40.70267006,-73.99118578,"57 Front St Brooklyn, NY 11201",https://www.yelp.com/biz/em-vietnamese-bistro-brooklyn?adjust_creative=g98UKJoNIm4WCojBNMJKvA&utm_campaign=yelp_api_v3&utm_medium=api_v3_business_search&utm_source=g98UKJoNIm4WCojBNMJKvA
Pheasant,4.5,88,3,"Mediterranean, New_American, Breakfast_and_Brunch",Brooklyn,NY,11211,40.7185,-73.9452,"445 Graham Ave Brooklyn, NY 11211",https://www.yelp.com/biz/pheasant-brooklyn?adjust_creative=g98UKJoNIm4WCojBNMJKvA&utm_campaign=yelp_api_v3&utm_medium=api_v3_business_search&utm_source=g98UKJoNIm4WCojBNMJKvA
Aurora,4,738,2,"Italian, Comfort_Food",Brooklyn,NY,11249,40.715621,-73.964757,"70 Grand St Brooklyn, NY 11249",https://www.yelp.com/biz/aurora-brooklyn?adjust_creative=g98UKJoNIm4WCojBNMJKvA&utm_campaign=yelp_api_v3&utm_medium=api_v3_business_search&utm_source=g98UKJoNIm4WCojBNMJKvA
The_Fulton_by_Jean-Georges,3.5,298,3,"Seafood, Live_Raw_Food",New York,NY,10038,40.70540592,-74.00120244,"89 South St New York, NY 10038",https://www.yelp.com/biz/the-fulton-by-jean-georges-new-york-2?adjust_creative=g98UKJoNIm4WCojBNMJKvA&utm_campaign=yelp_api_v3&utm_medium=api_v3_business_search&utm_source=g98UKJoNIm4WCojBNMJKvA
Crown_Shy,4,407,4,"New_American, Cocktail_Bars",New York,NY,10005,40.7063449,-74.0076944,"70 Pine St New York, NY 10005",https://www.yelp.com/biz/crown-shy-new-york-2?adjust_creative=g98UKJoNIm4WCojBNMJKvA&utm_campaign=yelp_api_v3&utm_medium=api_v3_business_search&utm_source=g98UKJoNIm4WCojBNMJKvA
Win_Son,4,592,2,"Taiwanese, New_American",Brooklyn,NY,11206,40.70747,-73.94339,"159 Graham Ave Brooklyn, NY 11206",https://www.yelp.com/biz/win-son-brooklyn-4?adjust_creative=g98UKJoNIm4WCojBNMJKvA&utm_campaign=yelp_api_v3&utm_medium=api_v3_business_search&utm_source=g98UKJoNIm4WCojBNMJKvA
Red_Hook_Tavern,4,108,3,"American_Traditional, Bars",Brooklyn,NY,11231,40.67788,-74.01209,"329 Van Brunt St Brooklyn, NY 11231",https://www.yelp.com/biz/red-hook-tavern-brooklyn?adjust_creative=g98UKJoNIm4WCojBNMJKvA&utm_campaign=yelp_api_v3&utm_medium=api_v3_business_search&utm_source=g98UKJoNIm4WCojBNMJKvA
Uncle_Lou,4.5,97,2,Chinese,New York,NY,10013,40.71623,-73.99925,"73 Mulberry St New York, NY 10013",https://www.yelp.com/biz/uncle-lou-new-york-3?adjust_creative=g98UKJoNIm4WCojBNMJKvA&utm_campaign=yelp_api_v3&utm_medium=api_v3_business_search&utm_source=g98UKJoNIm4WCojBNMJKvA
Oxalis,4.5,181,3,"French, New_American",Brooklyn,NY,11238,40.673109,-73.9626279,"791 Washington Ave Brooklyn, NY 11238",https://www.yelp.com/biz/oxalis-brooklyn?adjust_creative=g98UKJoNIm4WCojBNMJKvA&utm_campaign=yelp_api_v3&utm_medium=api_v3_business_search&utm_source=g98UKJoNIm4WCojBNMJKvA
OTB,4.5,153,2,"New_American, Cocktail_Bars, Gastropub",Brooklyn,NY,11211,40.710484,-73.963408,"141 Broadway Brooklyn, NY 11211",https://www.yelp.com/biz/otb-brooklyn?adjust_creative=g98UKJoNIm4WCojBNMJKvA&utm_campaign=yelp_api_v3&utm_medium=api_v3_business_search&utm_source=g98UKJoNIm4WCojBNMJKvA
Pasta_Louise,4.5,193,2,"Italian, Pasta_Shops, Sandwiches",Brooklyn,NY,11215,40.666091,-73.9787254,"803 8th Ave Brooklyn, NY 11215",https://www.yelp.com/biz/pasta-louise-brooklyn?adjust_creative=g98UKJoNIm4WCojBNMJKvA&utm_campaign=yelp_api_v3&utm_medium=api_v3_business_search&utm_source=g98UKJoNIm4WCojBNMJKvA
Supper,4,1396,2,"Italian, Desserts, Wine_Bars",New York,NY,10009,40.72290787,-73.98520721,"156 E 2nd St New York, NY 10009",https://www.yelp.com/biz/supper-new-york?adjust_creative=g98UKJoNIm4WCojBNMJKvA&utm_campaign=yelp_api_v3&utm_medium=api_v3_business_search&utm_source=g98UKJoNIm4WCojBNMJKvA
Popina,4.5,77,2,"Southern, Italian",Brooklyn,NY,11231,40.68736196,-74.00142519,"127 Columbia St Brooklyn, NY 11231",https://www.yelp.com/biz/popina-brooklyn?adjust_creative=g98UKJoNIm4WCojBNMJKvA&utm_campaign=yelp_api_v3&utm_medium=api_v3_business_search&utm_source=g98UKJoNIm4WCojBNMJKvA
Okonomi,4.5,474,2,"Japanese, Seafood",Brooklyn,NY,11211,40.712622,-73.9487843,"150 Ainslie St Brooklyn, NY 11211",https://www.yelp.com/biz/okonomi-brooklyn?adjust_creative=g98UKJoNIm4WCojBNMJKvA&utm_campaign=yelp_api_v3&utm_medium=api_v3_business_search&utm_source=g98UKJoNIm4WCojBNMJKvA
FERNS,4.5,137,2,"Bars, New_American, Breakfast_and_Brunch",New York,NY,10009,40.72881,-73.98403,"166 1st Ave New York, NY 10009",https://www.yelp.com/biz/ferns-new-york-7?adjust_creative=g98UKJoNIm4WCojBNMJKvA&utm_campaign=yelp_api_v3&utm_medium=api_v3_business_search&utm_source=g98UKJoNIm4WCojBNMJKvA
ICHIRAN_Times_Square,4.5,555,2,"Ramen, Noodles, Desserts",New York,NY,10019,40.76004,-73.9833,"152 W 49th St New York, NY 10019",https://www.yelp.com/biz/ichiran-times-square-new-york-4?adjust_creative=g98UKJoNIm4WCojBNMJKvA&utm_campaign=yelp_api_v3&utm_medium=api_v3_business_search&utm_source=g98UKJoNIm4WCojBNMJKvA
L'Artusi,4.5,2016,3,"Italian, Cocktail_Bars",New York,NY,10014,40.73372,-74.00513,"228 W 10th St New York, NY 10014",https://www.yelp.com/biz/l-artusi-new-york?adjust_creative=g98UKJoNIm4WCojBNMJKvA&utm_campaign=yelp_api_v3&utm_medium=api_v3_business_search&utm_source=g98UKJoNIm4WCojBNMJKvA
Olea,4,941,2,"Tapas_Bars, Breakfast_and_Brunch, Mediterranean",Brooklyn,NY,11238,40.6877844,-73.9706046,"171 Lafayette Ave Brooklyn, NY 11238",https://www.yelp.com/biz/olea-brooklyn-2?adjust_creative=g98UKJoNIm4WCojBNMJKvA&utm_campaign=yelp_api_v3&utm_medium=api_v3_business_search&utm_source=g98UKJoNIm4WCojBNMJKvA
Boucherie_Union_Square,4.5,1065,3,"Steakhouses, French, Cocktail_Bars",New York,NY,10003,40.73725825,-73.98822527,"225 Park Ave S New York, NY 10003",https://www.yelp.com/biz/boucherie-union-square-new-york-2?adjust_creative=g98UKJoNIm4WCojBNMJKvA&utm_campaign=yelp_api_v3&utm_medium=api_v3_business_search&utm_source=g98UKJoNIm4WCojBNMJKvA
Frankies_457_Spuntino,4,851,3,"Italian, Sandwiches, Wine_Bars",Brooklyn,NY,11231,40.677328,-73.997972,"457 Court St Brooklyn, NY 11231",https://www.yelp.com/biz/frankies-457-spuntino-brooklyn-3?adjust_creative=g98UKJoNIm4WCojBNMJKvA&utm_campaign=yelp_api_v3&utm_medium=api_v3_business_search&utm_source=g98UKJoNIm4WCojBNMJKvA
The_River_Café,4,1189,4,"New_American, Wine_Bars",Brooklyn,NY,11201,40.70386671,-73.9947936,"1 Water St Brooklyn, NY 11201",https://www.yelp.com/biz/the-river-caf%C3%A9-brooklyn-3?adjust_creative=g98UKJoNIm4WCojBNMJKvA&utm_campaign=yelp_api_v3&utm_medium=api_v3_business_search&utm_source=g98UKJoNIm4WCojBNMJKvA
Emily,4,855,2,American_Traditional,Brooklyn,NY,11238,40.68351,-73.96643,"919 Fulton St Brooklyn, NY 11238",https://www.yelp.com/biz/emily-brooklyn-2?adjust_creative=g98UKJoNIm4WCojBNMJKvA&utm_campaign=yelp_api_v3&utm_medium=api_v3_business_search&utm_source=g98UKJoNIm4WCojBNMJKvA
Cafe_Mogador,4,2000,2,"Moroccan, Middle_Eastern, Breakfast_and_Brunch",New York,NY,10009,40.72725877,-73.98450851,"101 St Marks Pl New York, NY 10009",https://www.yelp.com/biz/cafe-mogador-new-york?adjust_creative=g98UKJoNIm4WCojBNMJKvA&utm_campaign=yelp_api_v3&utm_medium=api_v3_business_search&utm_source=g98UKJoNIm4WCojBNMJKvA
Esme,4.5,363,2,"New_American, Cocktail_Bars",Brooklyn,NY,11222,40.73322607,-73.95492696,"999 Manhattan Ave Brooklyn, NY 11222",https://www.yelp.com/biz/esme-brooklyn-2?adjust_creative=g98UKJoNIm4WCojBNMJKvA&utm_campaign=yelp_api_v3&utm_medium=api_v3_business_search&utm_source=g98UKJoNIm4WCojBNMJKvA
Rice_kitchen,5,107,2,"Korean, Asian_Fusion",New York,NY,10012,40.725166,-74.003712,"204 Spring St New York, NY 10012",https://www.yelp.com/biz/rice-kitchen-new-york?adjust_creative=g98UKJoNIm4WCojBNMJKvA&utm_campaign=yelp_api_v3&utm_medium=api_v3_business_search&utm_source=g98UKJoNIm4WCojBNMJKvA
Boutros,4.5,153,3,"New_American, Middle_Eastern, Cocktail_Bars",Brooklyn,NY,11201,40.69014813,-73.99354454,"185 Atlantic Ave Brooklyn, NY 11201",https://www.yelp.com/biz/boutros-brooklyn?adjust_creative=g98UKJoNIm4WCojBNMJKvA&utm_campaign=yelp_api_v3&utm_medium=api_v3_business_search&utm_source=g98UKJoNIm4WCojBNMJKvA
Nón_Lá,4.5,128,2,Vietnamese,New York,NY,10003,40.725287,-73.987563,"128 E 4th St New York, NY 10003",https://www.yelp.com/biz/n%C3%B3n-l%C3%A1-new-york-10?adjust_creative=g98UKJoNIm4WCojBNMJKvA&utm_campaign=yelp_api_v3&utm_medium=api_v3_business_search&utm_source=g98UKJoNIm4WCojBNMJKvA
Ugly_Baby,4.5,369,2,"Thai, Bars",Brooklyn,NY,11231,40.67795,-73.9961,"407 Smith St Brooklyn, NY 11231",https://www.yelp.com/biz/ugly-baby-brooklyn-3?adjust_creative=g98UKJoNIm4WCojBNMJKvA&utm_campaign=yelp_api_v3&utm_medium=api_v3_business_search&utm_source=g98UKJoNIm4WCojBNMJKvA
Claro,4,264,2,"Mexican, New_Mexican, Cocktail_Bars",Brooklyn,NY,11215,40.6773588,-73.98619845,"284 3rd Ave Brooklyn, NY 11215",https://www.yelp.com/biz/claro-brooklyn?adjust_creative=g98UKJoNIm4WCojBNMJKvA&utm_campaign=yelp_api_v3&utm_medium=api_v3_business_search&utm_source=g98UKJoNIm4WCojBNMJKvA
Olmsted,4,436,3,"New_American, Bars",Brooklyn,NY,11238,40.67713,-73.96869,"659 Vanderbilt Ave Brooklyn, NY 11238",https://www.yelp.com/biz/olmsted-brooklyn?adjust_creative=g98UKJoNIm4WCojBNMJKvA&utm_campaign=yelp_api_v3&utm_medium=api_v3_business_search&utm_source=g98UKJoNIm4WCojBNMJKvA
La_Sirène-Soho,4.5,1652,3,French,New York,NY,10013,40.72436422,-74.00570869,"558 Broome St New York, NY 10013",https://www.yelp.com/biz/la-sir%C3%A8ne-soho-new-york?adjust_creative=g98UKJoNIm4WCojBNMJKvA&utm_campaign=yelp_api_v3&utm_medium=api_v3_business_search&utm_source=g98UKJoNIm4WCojBNMJKvA
Berimbau_Brazilian_Kitchen,4.5,143,2,Brazilian,New York,NY,10014,40.73007,-74.00366,"43 Carmine St New York, NY 10014",https://www.yelp.com/biz/berimbau-brazilian-kitchen-new-york-2?adjust_creative=g98UKJoNIm4WCojBNMJKvA&utm_campaign=yelp_api_v3&utm_medium=api_v3_business_search&utm_source=g98UKJoNIm4WCojBNMJKvA
Lucali,4,1769,2,Pizza,Brooklyn,NY,11231,40.6818,-74.00024,"575 Henry St Brooklyn, NY 11231",https://www.yelp.com/biz/lucali-brooklyn-3?adjust_creative=g98UKJoNIm4WCojBNMJKvA&utm_campaign=yelp_api_v3&utm_medium=api_v3_business_search&utm_source=g98UKJoNIm4WCojBNMJKvA
Jack's_Wife_Freda,4,2063,2,"Breakfast_and_Brunch, Mediterranean, New_American",New York,NY,10012,40.72213,-73.99756,"224 Lafayette St New York, NY 10012",https://www.yelp.com/biz/jacks-wife-freda-new-york?adjust_creative=g98UKJoNIm4WCojBNMJKvA&utm_campaign=yelp_api_v3&utm_medium=api_v3_business_search&utm_source=g98UKJoNIm4WCojBNMJKvA
Kaikagetsu_NYC,4.5,121,4,Japanese,New York,NY,10002,40.72104,-73.98848,"162 Orchard St New York, NY 10002",https://www.yelp.com/biz/kaikagetsu-nyc-new-york-2?adjust_creative=g98UKJoNIm4WCojBNMJKvA&utm_campaign=yelp_api_v3&utm_medium=api_v3_business_search&utm_source=g98UKJoNIm4WCojBNMJKvA
Little_Owl,4,1355,2,"Breakfast_and_Brunch, Mediterranean",New York,NY,10014,40.73240001,-74.00532068,"90 Bedford St New York, NY 10014",https://www.yelp.com/biz/little-owl-new-york-3?adjust_creative=g98UKJoNIm4WCojBNMJKvA&utm_campaign=yelp_api_v3&utm_medium=api_v3_business_search&utm_source=g98UKJoNIm4WCojBNMJKvA
Kimika,4,243,3,"Japanese, Italian, Cocktail_Bars",New York,NY,10012,40.720572,-73.995206,"40 Kenmare St New York, NY 10012",https://www.yelp.com/biz/kimika-new-york?adjust_creative=g98UKJoNIm4WCojBNMJKvA&utm_campaign=yelp_api_v3&utm_medium=api_v3_business_search&utm_source=g98UKJoNIm4WCojBNMJKvA
Mission_Ceviche,4.5,546,3,Peruvian,New York,NY,10021,40.7692325,-73.9578759,"1400 2nd Ave New York, NY 10021",https://www.yelp.com/biz/mission-ceviche-new-york-3?adjust_creative=g98UKJoNIm4WCojBNMJKvA&utm_campaign=yelp_api_v3&utm_medium=api_v3_business_search&utm_source=g98UKJoNIm4WCojBNMJKvA
Electric_Lemon,3.5,218,3,"New_American, Desserts, Breakfast_and_Brunch",New York,NY,10001,40.754553,-74.002057,"33 Hudson Yards Fl 24 New York, NY 10001",https://www.yelp.com/biz/electric-lemon-new-york?adjust_creative=g98UKJoNIm4WCojBNMJKvA&utm_campaign=yelp_api_v3&utm_medium=api_v3_business_search&utm_source=g98UKJoNIm4WCojBNMJKvA
Coco_Bistro,4.5,135,2,"French, Wine_Bars, Cocktail_Bars",Peck Slip,NY,10038,40.70757,-74.00184,"233-235 Front St Peck Slip, NY 10038",https://www.yelp.com/biz/coco-bistro-peck-slip?adjust_creative=g98UKJoNIm4WCojBNMJKvA&utm_campaign=yelp_api_v3&utm_medium=api_v3_business_search&utm_source=g98UKJoNIm4WCojBNMJKvA
Sofreh,4,321,2,Persian,Brooklyn,NY,11217,40.6798617,-73.973984,"75 St Marks Ave Brooklyn, NY 11217",https://www.yelp.com/biz/sofreh-brooklyn?adjust_creative=g98UKJoNIm4WCojBNMJKvA&utm_campaign=yelp_api_v3&utm_medium=api_v3_business_search&utm_source=g98UKJoNIm4WCojBNMJKvA
Miss_Ada,4.5,334,3,"Mediterranean, Cocktail_Bars",Brooklyn,NY,11205,40.689436,-73.9723809,"184 Dekalb Ave Brooklyn, NY 11205",https://www.yelp.com/biz/miss-ada-brooklyn-2?adjust_creative=g98UKJoNIm4WCojBNMJKvA&utm_campaign=yelp_api_v3&utm_medium=api_v3_business_search&utm_source=g98UKJoNIm4WCojBNMJKvA
3_Times,4,186,2,"Dimsum, Shanghainese, Noodles",New York,NY,10003,40.73285,-73.99104,"818 Broadway New York, NY 10003",https://www.yelp.com/biz/3-times-new-york-6?adjust_creative=g98UKJoNIm4WCojBNMJKvA&utm_campaign=yelp_api_v3&utm_medium=api_v3_business_search&utm_source=g98UKJoNIm4WCojBNMJKvA
Clinton_Hall,3.5,719,2,"Bars, New_American, Beer_Garden",New York,NY,10006,40.70803,-74.014869,"90 Washington St New York, NY 10006",https://www.yelp.com/biz/clinton-hall-new-york?adjust_creative=g98UKJoNIm4WCojBNMJKvA&utm_campaign=yelp_api_v3&utm_medium=api_v3_business_search&utm_source=g98UKJoNIm4WCojBNMJKvA
Celestine,4,250,3,"Mediterranean, Bars",Brooklyn,NY,11201,40.704676,-73.987975,"1 John St Brooklyn, NY 11201",https://www.yelp.com/biz/celestine-brooklyn?adjust_creative=g98UKJoNIm4WCojBNMJKvA&utm_campaign=yelp_api_v3&utm_medium=api_v3_business_search&utm_source=g98UKJoNIm4WCojBNMJKvA
Traif,4.5,1932,4,"New_American, Tapas_SmallPlates",Brooklyn,NY,11211,40.710658,-73.958872,"229 S 4th St Brooklyn, NY 11211",https://www.yelp.com/biz/traif-brooklyn?adjust_creative=g98UKJoNIm4WCojBNMJKvA&utm_campaign=yelp_api_v3&utm_medium=api_v3_business_search&utm_source=g98UKJoNIm4WCojBNMJKvA
Casa_Ora,4.5,128,3,"Venezuelan, Cocktail_Bars, ",Brooklyn,NY,11206,40.707943,-73.9437707,"148 Meserole St Brooklyn, NY 11206",https://www.yelp.com/biz/casa-ora-brooklyn?adjust_creative=g98UKJoNIm4WCojBNMJKvA&utm_campaign=yelp_api_v3&utm_medium=api_v3_business_search&utm_source=g98UKJoNIm4WCojBNMJKvA
High_Lúa_Vietnamese_Kitchen,4.5,225,2,Vietnamese,Brooklyn,NY,11211,40.71258,-73.96045,"182 S 2nd St Brooklyn, NY 11211",https://www.yelp.com/biz/high-l%C3%BAa-vietnamese-kitchen-brooklyn?adjust_creative=g98UKJoNIm4WCojBNMJKvA&utm_campaign=yelp_api_v3&utm_medium=api_v3_business_search&utm_source=g98UKJoNIm4WCojBNMJKvA
Salma,5,56,2,"Lebanese, Breakfast_and_Brunch, Sandwiches",New York,NY,10003,40.73036994,-73.98372226,"351 E 12th St New York, NY 10003",https://www.yelp.com/biz/salma-new-york?adjust_creative=g98UKJoNIm4WCojBNMJKvA&utm_campaign=yelp_api_v3&utm_medium=api_v3_business_search&utm_source=g98UKJoNIm4WCojBNMJKvA
The_Bao,4,1325,2,"Shanghainese, Dimsum, Seafood",New York,NY,10003,40.72939,-73.9889199,"13 St Marks Pl New York, NY 10003",https://www.yelp.com/biz/the-bao-new-york?adjust_creative=g98UKJoNIm4WCojBNMJKvA&utm_campaign=yelp_api_v3&utm_medium=api_v3_business_search&utm_source=g98UKJoNIm4WCojBNMJKvA
Las_Santas,4.5,221,2,"Mexican, Cocktail_Bars, Breakfast_and_Brunch",Brooklyn,NY,11217,40.6882,-73.97953,"572 Fulton St Brooklyn, NY 11217",https://www.yelp.com/biz/las-santas-brooklyn-2?adjust_creative=g98UKJoNIm4WCojBNMJKvA&utm_campaign=yelp_api_v3&utm_medium=api_v3_business_search&utm_source=g98UKJoNIm4WCojBNMJKvA
Boqueria,4,832,3,"Tapas_SmallPlates, Spanish, Tapas_Bars",New York,NY,10075,40.771522,-73.956073,"1460 2nd Ave New York, NY 10075",https://www.yelp.com/biz/boqueria-new-york-16?adjust_creative=g98UKJoNIm4WCojBNMJKvA&utm_campaign=yelp_api_v3&utm_medium=api_v3_business_search&utm_source=g98UKJoNIm4WCojBNMJKvA
Au_Cheval,4.5,569,3,"Burgers, New_American, Cocktail_Bars",New York,NY,10013,40.7183878,-74.0015522,"33 Cortlandt Aly New York, NY 10013",https://www.yelp.com/biz/au-cheval-new-york-7?adjust_creative=g98UKJoNIm4WCojBNMJKvA&utm_campaign=yelp_api_v3&utm_medium=api_v3_business_search&utm_source=g98UKJoNIm4WCojBNMJKvA
Beauty_&_Essex,4,3627,3,New_American,New York,NY,10002,40.72043479,-73.98686058,"146 Essex St New York, NY 10002",https://www.yelp.com/biz/beauty-and-essex-new-york-2?adjust_creative=g98UKJoNIm4WCojBNMJKvA&utm_campaign=yelp_api_v3&utm_medium=api_v3_business_search&utm_source=g98UKJoNIm4WCojBNMJKvA
La_Lanterna_Di_Vittorio,4,1543,2,"Italian, Cafe, Pizza",New York,NY,10012,40.73069,-74.00015,"129 MacDougal St New York, NY 10012",https://www.yelp.com/biz/la-lanterna-di-vittorio-new-york?adjust_creative=g98UKJoNIm4WCojBNMJKvA&utm_campaign=yelp_api_v3&utm_medium=api_v3_business_search&utm_source=g98UKJoNIm4WCojBNMJKvA
Momofuku_Noodle_Bar_Uptown,4,389,2,"New_American, Noodles, Ramen",New York,NY,10019,40.76802584,-73.9829243,"10 Columbus Cir Third Floor New York, NY 10019",https://www.yelp.com/biz/momofuku-noodle-bar-uptown-new-york?adjust_creative=g98UKJoNIm4WCojBNMJKvA&utm_campaign=yelp_api_v3&utm_medium=api_v3_business_search&utm_source=g98UKJoNIm4WCojBNMJKvA
Freemans,4,2129,2,"Breakfast_and_Brunch, American_Traditional",New York,NY,10002,40.721988,-73.992466,"Freeman Alley New York, NY 10002",https://www.yelp.com/biz/freemans-new-york-3?adjust_creative=g98UKJoNIm4WCojBNMJKvA&utm_campaign=yelp_api_v3&utm_medium=api_v3_business_search&utm_source=g98UKJoNIm4WCojBNMJKvA
Ci_Siamo,4.5,80,3,Italian,New York,NY,10001,40.7532112,-73.998305,"440 West 33rd St Ste 100 New York, NY 10001",https://www.yelp.com/biz/ci-siamo-new-york-5?adjust_creative=g98UKJoNIm4WCojBNMJKvA&utm_campaign=yelp_api_v3&utm_medium=api_v3_business_search&utm_source=g98UKJoNIm4WCojBNMJKvA
Burger_&_Lobster_Flatiron_NYC,4,5576,2,"Seafood, Burgers, New_American",New York,NY,10011,40.74007,-73.99344,"39 W 19th St New York, NY 10011",https://www.yelp.com/biz/burger-and-lobster-flatiron-nyc-new-york?adjust_creative=g98UKJoNIm4WCojBNMJKvA&utm_campaign=yelp_api_v3&utm_medium=api_v3_business_search&utm_source=g98UKJoNIm4WCojBNMJKvA
Walter's,4,572,2,"New_American, Cocktail_Bars",Brooklyn,NY,11217,40.68941116,-73.97325897,"166 DeKalb Ave Brooklyn, NY 11217",https://www.yelp.com/biz/walters-brooklyn?adjust_creative=g98UKJoNIm4WCojBNMJKvA&utm_campaign=yelp_api_v3&utm_medium=api_v3_business_search&utm_source=g98UKJoNIm4WCojBNMJKvA
Ampersand,4.5,236,2,"Cocktail_Bars, New_American",New York,NY,10010,40.73861788,-73.98342069,"294 3rd Ave New York, NY 10010",https://www.yelp.com/biz/ampersand-new-york-2?adjust_creative=g98UKJoNIm4WCojBNMJKvA&utm_campaign=yelp_api_v3&utm_medium=api_v3_business_search&utm_source=g98UKJoNIm4WCojBNMJKvA
Roberta's,4,3068,2,"Pizza, Italian",Brooklyn,NY,11206,40.70493,-73.93399,"261 Moore St Brooklyn, NY 11206",https://www.yelp.com/biz/robertas-brooklyn-2?adjust_creative=g98UKJoNIm4WCojBNMJKvA&utm_campaign=yelp_api_v3&utm_medium=api_v3_business_search&utm_source=g98UKJoNIm4WCojBNMJKvA
Cecconi's_Dumbo,3.5,897,3,Italian,Brooklyn,NY,11201,40.70330633,-73.99165496,"55 Water St Brooklyn, NY 11201",https://www.yelp.com/biz/cecconis-dumbo-brooklyn?adjust_creative=g98UKJoNIm4WCojBNMJKvA&utm_campaign=yelp_api_v3&utm_medium=api_v3_business_search&utm_source=g98UKJoNIm4WCojBNMJKvA
Jajaja_Mexicana,4.5,1089,2,"Mexican, Vegan, Bars",New York,NY,10002,40.71415303,-73.9904248,"162 E Broadway New York, NY 10002",https://www.yelp.com/biz/jajaja-mexicana-new-york-2?adjust_creative=g98UKJoNIm4WCojBNMJKvA&utm_campaign=yelp_api_v3&utm_medium=api_v3_business_search&utm_source=g98UKJoNIm4WCojBNMJKvA
Peak,4.5,206,4,New_American,New York,NY,10001,40.7541644,-74.0009082,"30 Hudson Yards Fl 101 New York, NY 10001",https://www.yelp.com/biz/peak-new-york-2?adjust_creative=g98UKJoNIm4WCojBNMJKvA&utm_campaign=yelp_api_v3&utm_medium=api_v3_business_search&utm_source=g98UKJoNIm4WCojBNMJKvA
Bricolage,4,587,3,"Vietnamese, Gastropub, Cocktail_Bars",Brooklyn,NY,11217,40.67792,-73.97975,"162 5th Ave Brooklyn, NY 11217",https://www.yelp.com/biz/bricolage-brooklyn?adjust_creative=g98UKJoNIm4WCojBNMJKvA&utm_campaign=yelp_api_v3&utm_medium=api_v3_business_search&utm_source=g98UKJoNIm4WCojBNMJKvA
Hart's_Restaurant,4,95,3,New_American,Brooklyn,NY,11238,40.68146,-73.95589,"506 Franklin Ave Brooklyn, NY 11238",https://www.yelp.com/biz/harts-restaurant-brooklyn-2?adjust_creative=g98UKJoNIm4WCojBNMJKvA&utm_campaign=yelp_api_v3&utm_medium=api_v3_business_search&utm_source=g98UKJoNIm4WCojBNMJKvA
Good_Thanks_Cafe,4.5,280,2,"Cafe, Coffee_and_Tea, Breakfast_and_Brunch",New York,NY,10002,40.71972,-73.98952,"131A Orchard St New York, NY 10002",https://www.yelp.com/biz/good-thanks-cafe-new-york?adjust_creative=g98UKJoNIm4WCojBNMJKvA&utm_campaign=yelp_api_v3&utm_medium=api_v3_business_search&utm_source=g98UKJoNIm4WCojBNMJKvA
Marufuku_Ramen_New_York,4.5,100,2,Ramen,New York,NY,10003,40.72697,-73.98863,"92 2nd Ave New York, NY 10003",https://www.yelp.com/biz/marufuku-ramen-new-york-new-york?adjust_creative=g98UKJoNIm4WCojBNMJKvA&utm_campaign=yelp_api_v3&utm_medium=api_v3_business_search&utm_source=g98UKJoNIm4WCojBNMJKvA
Tara_Rose,4.5,468,2,"Cocktail_Bars, New_American",New York,NY,10016,40.74179566,-73.98123329,"384 3rd Ave New York, NY 10016",https://www.yelp.com/biz/tara-rose-new-york?adjust_creative=g98UKJoNIm4WCojBNMJKvA&utm_campaign=yelp_api_v3&utm_medium=api_v3_business_search&utm_source=g98UKJoNIm4WCojBNMJKvA
Chow_House,4.5,494,2,"Szechuan, Noodles, Soup",New York,NY,10012,40.72915,-74.00072,"181 Bleecker St New York, NY 10012",https://www.yelp.com/biz/chow-house-new-york?adjust_creative=g98UKJoNIm4WCojBNMJKvA&utm_campaign=yelp_api_v3&utm_medium=api_v3_business_search&utm_source=g98UKJoNIm4WCojBNMJKvA
Da_Claudio,4.5,543,2,"Italian, Cocktail_Bars, Desserts",New York,NY,10038,40.71087,-74.00753,"21 Ann St New York, NY 10038",https://www.yelp.com/biz/da-claudio-new-york?adjust_creative=g98UKJoNIm4WCojBNMJKvA&utm_campaign=yelp_api_v3&utm_medium=api_v3_business_search&utm_source=g98UKJoNIm4WCojBNMJKvA
Hometown_Bar-B-Que,4,1488,2,"Barbeque, Smokehouse",Brooklyn,NY,11231,40.67486,-74.01602,"454 Van Brunt St Brooklyn, NY 11231",https://www.yelp.com/biz/hometown-bar-b-que-brooklyn-3?adjust_creative=g98UKJoNIm4WCojBNMJKvA&utm_campaign=yelp_api_v3&utm_medium=api_v3_business_search&utm_source=g98UKJoNIm4WCojBNMJKvA
The_Binc,4.5,74,2,"Cocktail_Bars, Tapas_SmallPlates",Brooklyn,NY,11201,40.69925,-73.99227,"60 Henry St Brooklyn, NY 11201",https://www.yelp.com/biz/the-binc-brooklyn?adjust_creative=g98UKJoNIm4WCojBNMJKvA&utm_campaign=yelp_api_v3&utm_medium=api_v3_business_search&utm_source=g98UKJoNIm4WCojBNMJKvA
Bunker,4,741,2,Vietnamese,Brooklyn,NY,11237,40.7105638,-73.9233984,"99 Scott Ave Brooklyn, NY 11237",https://www.yelp.com/biz/bunker-brooklyn?adjust_creative=g98UKJoNIm4WCojBNMJKvA&utm_campaign=yelp_api_v3&utm_medium=api_v3_business_search&utm_source=g98UKJoNIm4WCojBNMJKvA
Jajaja_Mexicana,4.5,463,2,"Mexican, Vegan, Cocktail_Bars",New York,NY,10014,40.72979,-74.00455,"63 Carmine St New York, NY 10014",https://www.yelp.com/biz/jajaja-mexicana-new-york-3?adjust_creative=g98UKJoNIm4WCojBNMJKvA&utm_campaign=yelp_api_v3&utm_medium=api_v3_business_search&utm_source=g98UKJoNIm4WCojBNMJKvA
Bacall's_Family_Steakhouse,4,259,3,"New_American, Bars, Steakhouses",New York,NY,10036,40.7576,-73.98693,"220 West 44th St New York, NY 10036",https://www.yelp.com/biz/bacalls-family-steakhouse-new-york?adjust_creative=g98UKJoNIm4WCojBNMJKvA&utm_campaign=yelp_api_v3&utm_medium=api_v3_business_search&utm_source=g98UKJoNIm4WCojBNMJKvA
Forma_Pasta_Factory,4.5,381,2,"Pasta_Shops, Italian, Salad",Brooklyn,NY,11222,40.72371,-73.95157,"14 Bedford Ave Brooklyn, NY 11222",https://www.yelp.com/biz/forma-pasta-factory-brooklyn?adjust_creative=g98UKJoNIm4WCojBNMJKvA&utm_campaign=yelp_api_v3&utm_medium=api_v3_business_search&utm_source=g98UKJoNIm4WCojBNMJKvA
Saraghina_Pizzeria,4,937,2,"Pizza, Italian, Bars",Brooklyn,NY,11233,40.6837407,-73.9353473,"350 Lewis Ave Brooklyn, NY 11233",https://www.yelp.com/biz/saraghina-pizzeria-brooklyn-2?adjust_creative=g98UKJoNIm4WCojBNMJKvA&utm_campaign=yelp_api_v3&utm_medium=api_v3_business_search&utm_source=g98UKJoNIm4WCojBNMJKvA
Ramen_Danbo,4.5,380,2,"Ramen, Noodles",Brooklyn,NY,11217,40.67611996,-73.97451997,"52 7th Ave Brooklyn, NY 11217",https://www.yelp.com/biz/ramen-danbo-brooklyn?adjust_creative=g98UKJoNIm4WCojBNMJKvA&utm_campaign=yelp_api_v3&utm_medium=api_v3_business_search&utm_source=g98UKJoNIm4WCojBNMJKvA
MONO+MONO,4,631,2,"Korean, Cocktail_Bars, Desserts",New York,NY,10003,40.72549,-73.98803,"116 E 4th St New York, NY 10003",https://www.yelp.com/biz/mono-mono-new-york-9?adjust_creative=g98UKJoNIm4WCojBNMJKvA&utm_campaign=yelp_api_v3&utm_medium=api_v3_business_search&utm_source=g98UKJoNIm4WCojBNMJKvA
Evil_Katsu,4.5,63,2,"Japanese, Sandwiches",New York,NY,10009,40.7276848,-73.983243,"435 East 9th New York, NY 10009",https://www.yelp.com/biz/evil-katsu-new-york?adjust_creative=g98UKJoNIm4WCojBNMJKvA&utm_campaign=yelp_api_v3&utm_medium=api_v3_business_search&utm_source=g98UKJoNIm4WCojBNMJKvA
Grimaldi's_Pizzeria,3.5,4746,2,Pizza,Brooklyn,NY,11201,40.702583,-73.9932413,"1 Front St Brooklyn, NY 11201",https://www.yelp.com/biz/grimaldis-pizzeria-brooklyn-4?adjust_creative=g98UKJoNIm4WCojBNMJKvA&utm_campaign=yelp_api_v3&utm_medium=api_v3_business_search&utm_source=g98UKJoNIm4WCojBNMJKvA
Rosie's,4,803,2,Mexican,New York,NY,10003,40.72492,-73.99079,"29 E 2nd St New York, NY 10003",https://www.yelp.com/biz/rosies-new-york-2?adjust_creative=g98UKJoNIm4WCojBNMJKvA&utm_campaign=yelp_api_v3&utm_medium=api_v3_business_search&utm_source=g98UKJoNIm4WCojBNMJKvA
Bread_&_Spread,4.5,175,2,"Coffee_and_Tea, Breakfast_and_Brunch, Sandwiches",Dumbo,NY,11201,40.7025945,-73.9869119,"151 Front St Dumbo, NY 11201",https://www.yelp.com/biz/bread-and-spread-dumbo?adjust_creative=g98UKJoNIm4WCojBNMJKvA&utm_campaign=yelp_api_v3&utm_medium=api_v3_business_search&utm_source=g98UKJoNIm4WCojBNMJKvA
Diner,4,766,2,"Diners, New_American, Breakfast_and_Brunch",Brooklyn,NY,11249,40.71069,-73.96559,"85 Broadway Brooklyn, NY 11249",https://www.yelp.com/biz/diner-brooklyn?adjust_creative=g98UKJoNIm4WCojBNMJKvA&utm_campaign=yelp_api_v3&utm_medium=api_v3_business_search&utm_source=g98UKJoNIm4WCojBNMJKvA
Wild_Ink,4,211,3,Asian_Fusion,New York,NY,10001,40.753754,-74.001388,"500 W 33rd St Fl 5 New York, NY 10001",https://www.yelp.com/biz/wild-ink-new-york?adjust_creative=g98UKJoNIm4WCojBNMJKvA&utm_campaign=yelp_api_v3&utm_medium=api_v3_business_search&utm_source=g98UKJoNIm4WCojBNMJKvA
Gersi,4.5,312,2,"Italian, Wine_Bars, Breakfast_and_Brunch",Brooklyn,NY,11231,40.683438,-73.995711,"316 Court St Brooklyn, NY 11231",https://www.yelp.com/biz/gersi-brooklyn?adjust_creative=g98UKJoNIm4WCojBNMJKvA&utm_campaign=yelp_api_v3&utm_medium=api_v3_business_search&utm_source=g98UKJoNIm4WCojBNMJKvA
Dun_Huang__Grand_Central,4.5,240,2,"Chinese, Noodles",New York,NY,10016,40.74922,-73.97785,"320 Lexington Ave New York, NY 10016",https://www.yelp.com/biz/dun-huang-grand-central-new-york-4?adjust_creative=g98UKJoNIm4WCojBNMJKvA&utm_campaign=yelp_api_v3&utm_medium=api_v3_business_search&utm_source=g98UKJoNIm4WCojBNMJKvA
886,4,519,2,"Taiwanese, Asian_Fusion",New York,NY,10003,40.72877,-73.98873,"26 Saint Marks Pl New York, NY 10003",https://www.yelp.com/biz/886-new-york?adjust_creative=g98UKJoNIm4WCojBNMJKvA&utm_campaign=yelp_api_v3&utm_medium=api_v3_business_search&utm_source=g98UKJoNIm4WCojBNMJKvA
Sama_Street,5,143,2,"Cocktail_Bars, Pan_Asian, Tapas_SmallPlates",Brooklyn,NY,11222,40.7328843,-73.95452323,"988 Manhattan Ave Brooklyn, NY 11222",https://www.yelp.com/biz/sama-street-brooklyn-2?adjust_creative=g98UKJoNIm4WCojBNMJKvA&utm_campaign=yelp_api_v3&utm_medium=api_v3_business_search&utm_source=g98UKJoNIm4WCojBNMJKvA
OBAO,4,3171,2,"Vietnamese, Thai, Asian_Fusion",New York,NY,10036,40.7606544,-73.991332,"647 9th Ave New York, NY 10036",https://www.yelp.com/biz/obao-new-york-3?adjust_creative=g98UKJoNIm4WCojBNMJKvA&utm_campaign=yelp_api_v3&utm_medium=api_v3_business_search&utm_source=g98UKJoNIm4WCojBNMJKvA
Kokomo,4,507,2,"Caribbean, Breakfast_and_Brunch, Cocktail_Bars",Brooklyn,NY,11249,40.721985,-73.959706,"65 Kent Ave Brooklyn, NY 11249",https://www.yelp.com/biz/kokomo-brooklyn-2?adjust_creative=g98UKJoNIm4WCojBNMJKvA&utm_campaign=yelp_api_v3&utm_medium=api_v3_business_search&utm_source=g98UKJoNIm4WCojBNMJKvA
Szechuan_Mountain_House,4.5,482,2,Szechuan,New York,NY,10003,40.72911,-73.98858,"23 St Marks Pl New York, NY 10003",https://www.yelp.com/biz/szechuan-mountain-house-new-york-2?adjust_creative=g98UKJoNIm4WCojBNMJKvA&utm_campaign=yelp_api_v3&utm_medium=api_v3_business_search&utm_source=g98UKJoNIm4WCojBNMJKvA
Four_Four_South_Village,4.5,46,2,Taiwanese,New York,NY,10003,40.72892041,-73.9898209,"11 E 7th St New York, NY 10003",https://www.yelp.com/biz/four-four-south-village-new-york?adjust_creative=g98UKJoNIm4WCojBNMJKvA&utm_campaign=yelp_api_v3&utm_medium=api_v3_business_search&utm_source=g98UKJoNIm4WCojBNMJKvA
Dante,4,481,2,"Cocktail_Bars, Italian, Breakfast_and_Brunch",New York,NY,10012,40.72879,-74.00165,"79-81 Macdougal St New York, NY 10012",https://www.yelp.com/biz/dante-new-york?adjust_creative=g98UKJoNIm4WCojBNMJKvA&utm_campaign=yelp_api_v3&utm_medium=api_v3_business_search&utm_source=g98UKJoNIm4WCojBNMJKvA
Top_Thai_Greenwich,4.5,1689,2,"Thai, Cocktail_Bars, Halal",New York,NY,10012,40.729771,-73.999392,"235 Sullivan St New York, NY 10012",https://www.yelp.com/biz/top-thai-greenwich-new-york?adjust_creative=g98UKJoNIm4WCojBNMJKvA&utm_campaign=yelp_api_v3&utm_medium=api_v3_business_search&utm_source=g98UKJoNIm4WCojBNMJKvA
Ruby's_Cafe,4,1420,2,"Burgers, Coffee_and_Tea, Breakfast_and_Brunch",New York,NY,10012,40.7223288,-73.996326,"219 Mulberry St New York, NY 10012",https://www.yelp.com/biz/rubys-cafe-new-york-4?adjust_creative=g98UKJoNIm4WCojBNMJKvA&utm_campaign=yelp_api_v3&utm_medium=api_v3_business_search&utm_source=g98UKJoNIm4WCojBNMJKvA
White_Oak_Tavern,4.5,387,2,"New_American, Whiskey_Bars, Cocktail_Bars",New York,NY,10003,40.73036,-73.99462,"21 Waverly Pl New York, NY 10003",https://www.yelp.com/biz/white-oak-tavern-new-york-2?adjust_creative=g98UKJoNIm4WCojBNMJKvA&utm_campaign=yelp_api_v3&utm_medium=api_v3_business_search&utm_source=g98UKJoNIm4WCojBNMJKvA
Chez_Ma_Tante,4,223,2,New_American,Brooklyn,NY,11222,40.72689661,-73.95740361,"90 Calyer St Brooklyn, NY 11222",https://www.yelp.com/biz/chez-ma-tante-brooklyn?adjust_creative=g98UKJoNIm4WCojBNMJKvA&utm_campaign=yelp_api_v3&utm_medium=api_v3_business_search&utm_source=g98UKJoNIm4WCojBNMJKvA
Seamore’s_Dumbo,3.5,152,2,"Seafood, FishnChips, Cocktail_Bars",Brooklyn,NY,11201,40.7032,-73.99145,"66 Water St Brooklyn, NY 11201",https://www.yelp.com/biz/seamore-s-dumbo-brooklyn-3?adjust_creative=g98UKJoNIm4WCojBNMJKvA&utm_campaign=yelp_api_v3&utm_medium=api_v3_business_search&utm_source=g98UKJoNIm4WCojBNMJKvA
Oxomoco,4,436,3,Mexican,Brooklyn,NY,11222,40.7299099,-73.95548,"128 Greenpoint Ave Brooklyn, NY 11222",https://www.yelp.com/biz/oxomoco-brooklyn-2?adjust_creative=g98UKJoNIm4WCojBNMJKvA&utm_campaign=yelp_api_v3&utm_medium=api_v3_business_search&utm_source=g98UKJoNIm4WCojBNMJKvA
Spicy_Moon_East_Village,4.5,503,2,"Szechuan, Vegan",New York,NY,10003,40.72674,-73.98722,"328 E 6th St New York, NY 10003",https://www.yelp.com/biz/spicy-moon-east-village-new-york?adjust_creative=g98UKJoNIm4WCojBNMJKvA&utm_campaign=yelp_api_v3&utm_medium=api_v3_business_search&utm_source=g98UKJoNIm4WCojBNMJKvA
Mémé_Mediterranean,4,645,2,"Mediterranean, Salad, Seafood",New York,NY,10014,40.736412,-74.00616,"581 Hudson St New York, NY 10014",https://www.yelp.com/biz/m%C3%A9m%C3%A9-mediterranean-new-york-4?adjust_creative=g98UKJoNIm4WCojBNMJKvA&utm_campaign=yelp_api_v3&utm_medium=api_v3_business_search&utm_source=g98UKJoNIm4WCojBNMJKvA
A_Pasta_Bar,4,373,2,"Italian, Bars",New York,NY,10013,40.72229,-74.00403,"330 W Broadway New York, NY 10013",https://www.yelp.com/biz/a-pasta-bar-new-york?adjust_creative=g98UKJoNIm4WCojBNMJKvA&utm_campaign=yelp_api_v3&utm_medium=api_v3_business_search&utm_source=g98UKJoNIm4WCojBNMJKvA
Joe's_Home_of_Soup_Dumplings,4.5,181,2,"Shanghainese, Noodles",New York,NY,10017,40.75723,-73.97702,"7 E 48th St between Fifth and Madison avenues New York, NY 10017",https://www.yelp.com/biz/joes-home-of-soup-dumplings-new-york?adjust_creative=g98UKJoNIm4WCojBNMJKvA&utm_campaign=yelp_api_v3&utm_medium=api_v3_business_search&utm_source=g98UKJoNIm4WCojBNMJKvA
Chama_Mama,4.5,474,2,"Georgian, Wine_Bars, Cocktail_Bars",New York,NY,10011,40.7384,-73.99892,"149 W 14th St New York, NY 10011",https://www.yelp.com/biz/chama-mama-new-york?adjust_creative=g98UKJoNIm4WCojBNMJKvA&utm_campaign=yelp_api_v3&utm_medium=api_v3_business_search&utm_source=g98UKJoNIm4WCojBNMJKvA
Cathédrale_Restaurant,4,236,4,"French, Mediterranean",New York,NY,10003,40.7316,-73.98951,"112 E 11th St New York, NY 10003",https://www.yelp.com/biz/cath%C3%A9drale-restaurant-new-york-2?adjust_creative=g98UKJoNIm4WCojBNMJKvA&utm_campaign=yelp_api_v3&utm_medium=api_v3_business_search&utm_source=g98UKJoNIm4WCojBNMJKvA
Barrio_Chino,4,1149,2,"Mexican, Bars",New York,NY,10002,40.718022,-73.990026,"253 Broome St New York, NY 10002",https://www.yelp.com/biz/barrio-chino-new-york?adjust_creative=g98UKJoNIm4WCojBNMJKvA&utm_campaign=yelp_api_v3&utm_medium=api_v3_business_search&utm_source=g98UKJoNIm4WCojBNMJKvA
The_Elgin,4.5,179,2,"Cocktail_Bars, Beer_Bar, New_American",New York,NY,10036,40.758194,-73.980905,"64 West 48th St New York, NY 10036",https://www.yelp.com/biz/the-elgin-new-york?adjust_creative=g98UKJoNIm4WCojBNMJKvA&utm_campaign=yelp_api_v3&utm_medium=api_v3_business_search&utm_source=g98UKJoNIm4WCojBNMJKvA
Kiki's,4,707,2,"Greek, Mediterranean",New York,NY,10002,40.71449719,-73.99185539,"130 Division St New York, NY 10002",https://www.yelp.com/biz/kikis-new-york?adjust_creative=g98UKJoNIm4WCojBNMJKvA&utm_campaign=yelp_api_v3&utm_medium=api_v3_business_search&utm_source=g98UKJoNIm4WCojBNMJKvA
5ive_Spice,4.5,803,2,"Vietnamese, Coffee_and_Tea, Tacos",Brooklyn,NY,11217,40.681442,-73.977241,"52 5th Ave Brooklyn, NY 11217",https://www.yelp.com/biz/5ive-spice-brooklyn-3?adjust_creative=g98UKJoNIm4WCojBNMJKvA&utm_campaign=yelp_api_v3&utm_medium=api_v3_business_search&utm_source=g98UKJoNIm4WCojBNMJKvA
Upland,4,1106,3,"New_American, Burgers",New York,NY,10010,40.7418912,-73.9846396,"345 Park Ave S New York, NY 10010",https://www.yelp.com/biz/upland-new-york?adjust_creative=g98UKJoNIm4WCojBNMJKvA&utm_campaign=yelp_api_v3&utm_medium=api_v3_business_search&utm_source=g98UKJoNIm4WCojBNMJKvA
Lighthouse,4,281,2,"Wine_Bars, Mediterranean, Cocktail_Bars",Brooklyn,NY,11211,40.71040805,-73.95390405,"145 Borinquen Pl Brooklyn, NY 11211",https://www.yelp.com/biz/lighthouse-brooklyn-2?adjust_creative=g98UKJoNIm4WCojBNMJKvA&utm_campaign=yelp_api_v3&utm_medium=api_v3_business_search&utm_source=g98UKJoNIm4WCojBNMJKvA
City_Vineyard,4,1042,2,"Wine_Bars, New_American, ",New York,NY,10013,40.7205582,-74.0118093,"233 West St New York, NY 10013",https://www.yelp.com/biz/city-vineyard-new-york-2?adjust_creative=g98UKJoNIm4WCojBNMJKvA&utm_campaign=yelp_api_v3&utm_medium=api_v3_business_search&utm_source=g98UKJoNIm4WCojBNMJKvA
La_Pecora_Bianca,4,820,2,Italian,New York,NY,10010,40.74358,-73.9892,"1133 Broadway New York, NY 10010",https://www.yelp.com/biz/la-pecora-bianca-new-york?adjust_creative=g98UKJoNIm4WCojBNMJKvA&utm_campaign=yelp_api_v3&utm_medium=api_v3_business_search&utm_source=g98UKJoNIm4WCojBNMJKvA
Saigon_Shack,4,2537,2,"Vietnamese, Sandwiches, Coffee_and_Tea",New York,NY,10012,40.72969,-74.000629,"114 Macdougal St New York, NY 10012",https://www.yelp.com/biz/saigon-shack-new-york?adjust_creative=g98UKJoNIm4WCojBNMJKvA&utm_campaign=yelp_api_v3&utm_medium=api_v3_business_search&utm_source=g98UKJoNIm4WCojBNMJKvA
Emily_West_Village,4,822,2,"Pizza, Burgers",New York,NY,10014,40.72933007,-74.00384001,"35 Downing St New York, NY 10014",https://www.yelp.com/biz/emily-west-village-new-york?adjust_creative=g98UKJoNIm4WCojBNMJKvA&utm_campaign=yelp_api_v3&utm_medium=api_v3_business_search&utm_source=g98UKJoNIm4WCojBNMJKvA
Llama_Inn,4,585,3,"Peruvian, Bars",Brooklyn,NY,11211,40.71672,-73.95051,"50 Withers St Brooklyn, NY 11211",https://www.yelp.com/biz/llama-inn-brooklyn?adjust_creative=g98UKJoNIm4WCojBNMJKvA&utm_campaign=yelp_api_v3&utm_medium=api_v3_business_search&utm_source=g98UKJoNIm4WCojBNMJKvA
Sunflower_Gramercy,4.5,223,2,"Breakfast_and_Brunch, Coffee_and_Tea, New_American",New York,NY,10010,40.7399,-73.98219,"335 3rd Ave New York, NY 10010",https://www.yelp.com/biz/sunflower-gramercy-new-york-3?adjust_creative=g98UKJoNIm4WCojBNMJKvA&utm_campaign=yelp_api_v3&utm_medium=api_v3_business_search&utm_source=g98UKJoNIm4WCojBNMJKvA
Leuca,4,371,3,"Italian, Pasta_Shops, Pizza",Brooklyn,NY,11249,40.722121,-73.956678,"111 N 12th St The William Vale Hotel Brooklyn, NY 11249",https://www.yelp.com/biz/leuca-brooklyn?adjust_creative=g98UKJoNIm4WCojBNMJKvA&utm_campaign=yelp_api_v3&utm_medium=api_v3_business_search&utm_source=g98UKJoNIm4WCojBNMJKvA
Barn_Joo_Nomad,4.5,74,2,Korean,New York,NY,10001,40.74604,-73.99022,"816 6th Ave New York, NY 10001",https://www.yelp.com/biz/barn-joo-nomad-new-york-3?adjust_creative=g98UKJoNIm4WCojBNMJKvA&utm_campaign=yelp_api_v3&utm_medium=api_v3_business_search&utm_source=g98UKJoNIm4WCojBNMJKvA
Butler,4,148,2,"Coffee_and_Tea, Cafe",Brooklyn,NY,11201,40.70326707,-73.99224193,"40 Water St Brooklyn, NY 11201",https://www.yelp.com/biz/butler-brooklyn-2?adjust_creative=g98UKJoNIm4WCojBNMJKvA&utm_campaign=yelp_api_v3&utm_medium=api_v3_business_search&utm_source=g98UKJoNIm4WCojBNMJKvA
Dim_Sum_Palace,4.5,299,2,"Dimsum, Cantonese, Desserts",New York,NY,10003,40.7259,-73.98986,"59 2nd Ave New York, NY 10003",https://www.yelp.com/biz/dim-sum-palace-new-york-9?adjust_creative=g98UKJoNIm4WCojBNMJKvA&utm_campaign=yelp_api_v3&utm_medium=api_v3_business_search&utm_source=g98UKJoNIm4WCojBNMJKvA
Dudley's,4,858,2,"Cafe, Breakfast_and_Brunch, Cocktail_Bars",New York,NY,10002,40.71798,-73.99042,"85 Orchard St New York, NY 10002",https://www.yelp.com/biz/dudleys-new-york?adjust_creative=g98UKJoNIm4WCojBNMJKvA&utm_campaign=yelp_api_v3&utm_medium=api_v3_business_search&utm_source=g98UKJoNIm4WCojBNMJKvA
Cafe_Habana,4,3205,2,"Cuban, Mexican",New York,NY,10012,40.722998,-73.994171,"17 Prince St New York, NY 10012",https://www.yelp.com/biz/cafe-habana-new-york-4?adjust_creative=g98UKJoNIm4WCojBNMJKvA&utm_campaign=yelp_api_v3&utm_medium=api_v3_business_search&utm_source=g98UKJoNIm4WCojBNMJKvA
Mission_Brooklyn,3.5,89,2,"Chinese, Asian_Fusion, Noodles",Brooklyn,NY,11237,40.709382,-73.923229,"599 Johnson Ave Brooklyn, NY 11237",https://www.yelp.com/biz/mission-brooklyn-brooklyn?adjust_creative=g98UKJoNIm4WCojBNMJKvA&utm_campaign=yelp_api_v3&utm_medium=api_v3_business_search&utm_source=g98UKJoNIm4WCojBNMJKvA
Glasserie,4,395,3,"Mediterranean, Bars",Brooklyn,NY,11222,40.7376154,-73.9560697,"95 Commercial St Brooklyn, NY 11222",https://www.yelp.com/biz/glasserie-brooklyn-2?adjust_creative=g98UKJoNIm4WCojBNMJKvA&utm_campaign=yelp_api_v3&utm_medium=api_v3_business_search&utm_source=g98UKJoNIm4WCojBNMJKvA
Five_Senses,4,1564,2,"Korean, Barbeque",New York,NY,10001,40.74757316,-73.98631226,"9 W 32nd St New York, NY 10001",https://www.yelp.com/biz/five-senses-new-york?adjust_creative=g98UKJoNIm4WCojBNMJKvA&utm_campaign=yelp_api_v3&utm_medium=api_v3_business_search&utm_source=g98UKJoNIm4WCojBNMJKvA
Bluestone_Lane_DUMBO_Café,4,225,2,"Coffee_and_Tea, Gluten_Free, Breakfast_and_Brunch",Brooklyn,NY,11201,40.70077578,-73.98836356,"55 Prospect St Brooklyn, NY 11201",https://www.yelp.com/biz/bluestone-lane-dumbo-caf%C3%A9-brooklyn?adjust_creative=g98UKJoNIm4WCojBNMJKvA&utm_campaign=yelp_api_v3&utm_medium=api_v3_business_search&utm_source=g98UKJoNIm4WCojBNMJKvA
The_Greek,4.5,501,3,"Greek, Mediterranean, Cocktail_Bars",New York,NY,10013,40.72403161,-74.010448,"452 Washington St New York, NY 10013",https://www.yelp.com/biz/the-greek-new-york-2?adjust_creative=g98UKJoNIm4WCojBNMJKvA&utm_campaign=yelp_api_v3&utm_medium=api_v3_business_search&utm_source=g98UKJoNIm4WCojBNMJKvA
Tiny's_&_The_Bar_Upstairs,4,611,2,"Bars, New_American",New York,NY,10013,40.716698,-74.00816,"135 W Broadway New York, NY 10013",https://www.yelp.com/biz/tinys-and-the-bar-upstairs-new-york-2?adjust_creative=g98UKJoNIm4WCojBNMJKvA&utm_campaign=yelp_api_v3&utm_medium=api_v3_business_search&utm_source=g98UKJoNIm4WCojBNMJKvA
St_Tropez_West_Village,4.5,233,3,"Wine_Bars, French, Tapas_SmallPlates",New York,NY,10014,40.73704,-74.00386,"304 W 4th St New York, NY 10014",https://www.yelp.com/biz/st-tropez-west-village-new-york-3?adjust_creative=g98UKJoNIm4WCojBNMJKvA&utm_campaign=yelp_api_v3&utm_medium=api_v3_business_search&utm_source=g98UKJoNIm4WCojBNMJKvA
Nerai,4.5,599,3,"Greek, Seafood, Mediterranean",New York,NY,10022,40.76025681,-73.97308771,"55 E 54th St New York, NY 10022",https://www.yelp.com/biz/nerai-new-york?adjust_creative=g98UKJoNIm4WCojBNMJKvA&utm_campaign=yelp_api_v3&utm_medium=api_v3_business_search&utm_source=g98UKJoNIm4WCojBNMJKvA
Citizens_Of_Gramercy,4,184,2,"Australian, Cafe, Breakfast_and_Brunch",New York,NY,10010,40.73669226,-73.98148811,"362 2nd Ave New York, NY 10010",https://www.yelp.com/biz/citizens-of-gramercy-new-york-2?adjust_creative=g98UKJoNIm4WCojBNMJKvA&utm_campaign=yelp_api_v3&utm_medium=api_v3_business_search&utm_source=g98UKJoNIm4WCojBNMJKvA
Pig_Beach,4,666,2,"Barbeque, Bars",Brooklyn,NY,11231,40.67929415,-73.98802643,"480 Union St Brooklyn, NY 11231",https://www.yelp.com/biz/pig-beach-brooklyn?adjust_creative=g98UKJoNIm4WCojBNMJKvA&utm_campaign=yelp_api_v3&utm_medium=api_v3_business_search&utm_source=g98UKJoNIm4WCojBNMJKvA
Le_Sia,4.5,86,3,"Asian_Fusion, Chinese, Cajun_Creole",New York,NY,10036,40.76072,-73.99119,"651 9th Ave New York, NY 10036",https://www.yelp.com/biz/le-sia-new-york-4?adjust_creative=g98UKJoNIm4WCojBNMJKvA&utm_campaign=yelp_api_v3&utm_medium=api_v3_business_search&utm_source=g98UKJoNIm4WCojBNMJKvA
Pig_&_Butter,4,53,2,"Breakfast_and_Brunch, Burgers, Cooking_Classes",New York,NY,10002,40.720224,-73.988099,"134 Ludlow St New York, NY 10002",https://www.yelp.com/biz/pig-and-butter-new-york?adjust_creative=g98UKJoNIm4WCojBNMJKvA&utm_campaign=yelp_api_v3&utm_medium=api_v3_business_search&utm_source=g98UKJoNIm4WCojBNMJKvA
Cowgirl_Seahorse,4,618,2,"TexMex, Seafood, Southern",New York,NY,10038,40.7081358,-74.0004532,"259 Front St New York, NY 10038",https://www.yelp.com/biz/cowgirl-seahorse-new-york-2?adjust_creative=g98UKJoNIm4WCojBNMJKvA&utm_campaign=yelp_api_v3&utm_medium=api_v3_business_search&utm_source=g98UKJoNIm4WCojBNMJKvA
The_Odeon,4,695,3,"New_American, French, Italian",New York,NY,10013,40.71692,-74.00792,"145 W Broadway New York, NY 10013",https://www.yelp.com/biz/the-odeon-new-york?adjust_creative=g98UKJoNIm4WCojBNMJKvA&utm_campaign=yelp_api_v3&utm_medium=api_v3_business_search&utm_source=g98UKJoNIm4WCojBNMJKvA
Colonie,4,623,3,"Breakfast_and_Brunch, American_Traditional, Cocktail_Bars",Brooklyn,NY,11201,40.6909,-73.9958,"127 Atlantic Ave Brooklyn, NY 11201",https://www.yelp.com/biz/colonie-brooklyn?adjust_creative=g98UKJoNIm4WCojBNMJKvA&utm_campaign=yelp_api_v3&utm_medium=api_v3_business_search&utm_source=g98UKJoNIm4WCojBNMJKvA
Nami_Nori,4,457,3,"Sushi_Bars, Japanese",New York,NY,10014,40.730284,-74.003212,"33 Carmine St New York, NY 10014",https://www.yelp.com/biz/nami-nori-new-york?adjust_creative=g98UKJoNIm4WCojBNMJKvA&utm_campaign=yelp_api_v3&utm_medium=api_v3_business_search&utm_source=g98UKJoNIm4WCojBNMJKvA
Davelle,4.5,218,2,"Japanese, Bars, Cafe",New York,NY,10002,40.71852,-73.98605,"102 Suffolk St New York, NY 10002",https://www.yelp.com/biz/davelle-new-york-2?adjust_creative=g98UKJoNIm4WCojBNMJKvA&utm_campaign=yelp_api_v3&utm_medium=api_v3_business_search&utm_source=g98UKJoNIm4WCojBNMJKvA
Rice_&_Miso,4.5,88,2,Japanese,Brooklyn,NY,11217,40.68454362,-73.98377761,"134 Nevins St Brooklyn, NY 11217",https://www.yelp.com/biz/rice-and-miso-brooklyn?adjust_creative=g98UKJoNIm4WCojBNMJKvA&utm_campaign=yelp_api_v3&utm_medium=api_v3_business_search&utm_source=g98UKJoNIm4WCojBNMJKvA
Mom's_Kitchen_&_Bar,4.5,1153,2,"Comfort_Food, Breakfast_and_Brunch, Bars",New York,NY,10019,40.76247,-73.9901,"701 9th Ave New York, NY 10019",https://www.yelp.com/biz/moms-kitchen-and-bar-new-york?adjust_creative=g98UKJoNIm4WCojBNMJKvA&utm_campaign=yelp_api_v3&utm_medium=api_v3_business_search&utm_source=g98UKJoNIm4WCojBNMJKvA
Despaña_Fine_Foods_&_Tapas_Cafe,4.5,585,2,"Gourmet, Spanish, ImportedFood",New York,NY,10013,40.721094,-73.9978255,"408 Broome St New York, NY 10013",https://www.yelp.com/biz/despa%C3%B1a-fine-foods-and-tapas-cafe-new-york-2?adjust_creative=g98UKJoNIm4WCojBNMJKvA&utm_campaign=yelp_api_v3&utm_medium=api_v3_business_search&utm_source=g98UKJoNIm4WCojBNMJKvA
Soba-ya,4,1493,2,"Japanese, Noodles",New York,NY,10003,40.72965,-73.9878899,"229 E 9th St New York, NY 10003",https://www.yelp.com/biz/soba-ya-new-york?adjust_creative=g98UKJoNIm4WCojBNMJKvA&utm_campaign=yelp_api_v3&utm_medium=api_v3_business_search&utm_source=g98UKJoNIm4WCojBNMJKvA
Alta,4,1958,3,"Tapas_Bars, Mediterranean, Spanish",New York,NY,10011,40.73451638,-73.99833696,"64 W 10th St New York, NY 10011",https://www.yelp.com/biz/alta-new-york?adjust_creative=g98UKJoNIm4WCojBNMJKvA&utm_campaign=yelp_api_v3&utm_medium=api_v3_business_search&utm_source=g98UKJoNIm4WCojBNMJKvA
Five_Leaves,4,1648,2,"New_American, Coffee_and_Tea, Bars",Brooklyn,NY,11222,40.72371831,-73.95159864,"18 Bedford Ave Brooklyn, NY 11222",https://www.yelp.com/biz/five-leaves-brooklyn-2?adjust_creative=g98UKJoNIm4WCojBNMJKvA&utm_campaign=yelp_api_v3&utm_medium=api_v3_business_search&utm_source=g98UKJoNIm4WCojBNMJKvA
Golden_Diner,4.5,255,2,"Diners, Breakfast_and_Brunch, Sandwiches",New York,NY,10002,40.71244,-73.994,"123 Madison St New York, NY 10002",https://www.yelp.com/biz/golden-diner-new-york-2?adjust_creative=g98UKJoNIm4WCojBNMJKvA&utm_campaign=yelp_api_v3&utm_medium=api_v3_business_search&utm_source=g98UKJoNIm4WCojBNMJKvA
Barn_Joo,4,1730,2,"Korean, Cocktail_Bars, Tapas_SmallPlates",New York,NY,10003,40.73684,-73.99069,"35 Union Sq W New York, NY 10003",https://www.yelp.com/biz/barn-joo-new-york-3?adjust_creative=g98UKJoNIm4WCojBNMJKvA&utm_campaign=yelp_api_v3&utm_medium=api_v3_business_search&utm_source=g98UKJoNIm4WCojBNMJKvA
Guacuco_Bed-Stuy,4.5,72,2,Venezuelan,Brooklyn,NY,11221,40.69192,-73.94289,"360 Throop Ave Brooklyn, NY 11221",https://www.yelp.com/biz/guacuco-bed-stuy-brooklyn-2?adjust_creative=g98UKJoNIm4WCojBNMJKvA&utm_campaign=yelp_api_v3&utm_medium=api_v3_business_search&utm_source=g98UKJoNIm4WCojBNMJKvA
Big_Tiny,4.5,64,2,"Wine_Bars, French, Tapas_SmallPlates",Brooklyn,NY,11231,40.6834507,-73.992855,"244 Smith St Brooklyn, NY 11231",https://www.yelp.com/biz/big-tiny-brooklyn-4?adjust_creative=g98UKJoNIm4WCojBNMJKvA&utm_campaign=yelp_api_v3&utm_medium=api_v3_business_search&utm_source=g98UKJoNIm4WCojBNMJKvA
Lincoln_Station,4,286,2,"American_Traditional, Cafe",Brooklyn,NY,11238,40.6726102,-73.9627163,"409 Lincoln Pl Brooklyn, NY 11238",https://www.yelp.com/biz/lincoln-station-brooklyn?adjust_creative=g98UKJoNIm4WCojBNMJKvA&utm_campaign=yelp_api_v3&utm_medium=api_v3_business_search&utm_source=g98UKJoNIm4WCojBNMJKvA
Luke's_Lobster_FiDi,4.5,1199,2,Seafood,New York,NY,10004,40.7046213,-74.01077939,"26 S William St New York, NY 10004",https://www.yelp.com/biz/lukes-lobster-fidi-new-york?adjust_creative=g98UKJoNIm4WCojBNMJKvA&utm_campaign=yelp_api_v3&utm_medium=api_v3_business_search&utm_source=g98UKJoNIm4WCojBNMJKvA
Buddakan,4,4236,4,"Chinese, Bars, Asian_Fusion",New York,NY,10011,40.74227627,-74.0048001,"75 9th Ave New York, NY 10011",https://www.yelp.com/biz/buddakan-new-york?adjust_creative=g98UKJoNIm4WCojBNMJKvA&utm_campaign=yelp_api_v3&utm_medium=api_v3_business_search&utm_source=g98UKJoNIm4WCojBNMJKvA
Carmine's_Italian_Restaurant_Times_Square,4,3944,2,"Italian, Catering, ",New York,NY,10036,40.75749,-73.98662,"200 W 44th St New York, NY 10036",https://www.yelp.com/biz/carmines-italian-restaurant-times-square-new-york-5?adjust_creative=g98UKJoNIm4WCojBNMJKvA&utm_campaign=yelp_api_v3&utm_medium=api_v3_business_search&utm_source=g98UKJoNIm4WCojBNMJKvA
House_of_Joy,4.5,75,2,Dimsum,New York,NY,10013,40.71510354,-73.998459,"28 Pell St New York, NY 10013",https://www.yelp.com/biz/house-of-joy-new-york?adjust_creative=g98UKJoNIm4WCojBNMJKvA&utm_campaign=yelp_api_v3&utm_medium=api_v3_business_search&utm_source=g98UKJoNIm4WCojBNMJKvA
PMF_Pardon_My_French,4,1050,2,"French, Cocktail_Bars",New York,NY,10009,40.72473,-73.98115,"103 Ave B New York, NY 10009",https://www.yelp.com/biz/pmf-pardon-my-french-new-york?adjust_creative=g98UKJoNIm4WCojBNMJKvA&utm_campaign=yelp_api_v3&utm_medium=api_v3_business_search&utm_source=g98UKJoNIm4WCojBNMJKvA
Montesacro_Pinseria_Brooklyn,4.5,185,2,"Italian, Pizza, Bars",Brooklyn,NY,11211,40.71338,-73.95136,"432 Union Ave Brooklyn, NY 11211",https://www.yelp.com/biz/montesacro-pinseria-brooklyn-brooklyn?adjust_creative=g98UKJoNIm4WCojBNMJKvA&utm_campaign=yelp_api_v3&utm_medium=api_v3_business_search&utm_source=g98UKJoNIm4WCojBNMJKvA
Misi,4,426,3,Italian,Brooklyn,NY,11249,40.71341,-73.96662,"329 Kent Ave Brooklyn, NY 11249",https://www.yelp.com/biz/misi-brooklyn?adjust_creative=g98UKJoNIm4WCojBNMJKvA&utm_campaign=yelp_api_v3&utm_medium=api_v3_business_search&utm_source=g98UKJoNIm4WCojBNMJKvA
Chela_Modern_Mexican,4.5,574,2,"Mexican, Cocktail_Bars, Breakfast_and_Brunch",Brooklyn,NY,11215,40.67032,-73.98569,"408 5th Ave Brooklyn, NY 11215",https://www.yelp.com/biz/chela-modern-mexican-brooklyn?adjust_creative=g98UKJoNIm4WCojBNMJKvA&utm_campaign=yelp_api_v3&utm_medium=api_v3_business_search&utm_source=g98UKJoNIm4WCojBNMJKvA
Fresh_Salt,4,409,2,"Bars, New_American",New York,NY,10038,40.70707,-74.00244,"146 Beekman St New York, NY 10038",https://www.yelp.com/biz/fresh-salt-new-york?adjust_creative=g98UKJoNIm4WCojBNMJKvA&utm_campaign=yelp_api_v3&utm_medium=api_v3_business_search&utm_source=g98UKJoNIm4WCojBNMJKvA
The_Smith,4,1170,3,"New_American, Breakfast_and_Brunch, Cocktail_Bars",New York,NY,10010,40.74424,-73.98878,"1150 Broadway New York, NY 10010",https://www.yelp.com/biz/the-smith-new-york-7?adjust_creative=g98UKJoNIm4WCojBNMJKvA&utm_campaign=yelp_api_v3&utm_medium=api_v3_business_search&utm_source=g98UKJoNIm4WCojBNMJKvA
Silky_Kitchen,4.5,255,2,"Chinese, Noodles",New York,NY,10003,40.73297,-73.98829,"137 E 13th St New York, NY 10003",https://www.yelp.com/biz/silky-kitchen-new-york-3?adjust_creative=g98UKJoNIm4WCojBNMJKvA&utm_campaign=yelp_api_v3&utm_medium=api_v3_business_search&utm_source=g98UKJoNIm4WCojBNMJKvA
Yakitori_Totto,4,1371,3,Japanese,New York,NY,10019,40.765375,-73.983114,"251 W 55th St Fl 2 New York, NY 10019",https://www.yelp.com/biz/yakitori-totto-new-york?adjust_creative=g98UKJoNIm4WCojBNMJKvA&utm_campaign=yelp_api_v3&utm_medium=api_v3_business_search&utm_source=g98UKJoNIm4WCojBNMJKvA
Mr._Sun,4.5,99,2,"Dimsum, Seafood",New York,NY,10036,40.75809,-73.98026,"48 W 48th St New York, NY 10036",https://www.yelp.com/biz/mr-sun-new-york?adjust_creative=g98UKJoNIm4WCojBNMJKvA&utm_campaign=yelp_api_v3&utm_medium=api_v3_business_search&utm_source=g98UKJoNIm4WCojBNMJKvA
Gramercy_Tavern,4.5,3059,4,New_American,New York,NY,10003,40.73844,-73.98825,"42 E 20th St New York, NY 10003",https://www.yelp.com/biz/gramercy-tavern-new-york?adjust_creative=g98UKJoNIm4WCojBNMJKvA&utm_campaign=yelp_api_v3&utm_medium=api_v3_business_search&utm_source=g98UKJoNIm4WCojBNMJKvA
Soco,4,2252,2,"Cajun_Creole, Barbeque, SoulFood",Brooklyn,NY,11205,40.693866,-73.964535,"509 Myrtle Ave Brooklyn, NY 11205",https://www.yelp.com/biz/soco-brooklyn?adjust_creative=g98UKJoNIm4WCojBNMJKvA&utm_campaign=yelp_api_v3&utm_medium=api_v3_business_search&utm_source=g98UKJoNIm4WCojBNMJKvA
Awesum_Dimsum,4.5,292,2,"Dimsum, Cantonese",New York,NY,10010,40.7388534,-73.9836737,"160 E 23rd St New York, NY 10010",https://www.yelp.com/biz/awesum-dimsum-new-york-2?adjust_creative=g98UKJoNIm4WCojBNMJKvA&utm_campaign=yelp_api_v3&utm_medium=api_v3_business_search&utm_source=g98UKJoNIm4WCojBNMJKvA
Three_Roosters,4.5,136,2,"Thai, Chinese, Comfort_Food",New York,NY,10019,40.764957,-73.987485,"792 9th Ave New York, NY 10019",https://www.yelp.com/biz/three-roosters-new-york?adjust_creative=g98UKJoNIm4WCojBNMJKvA&utm_campaign=yelp_api_v3&utm_medium=api_v3_business_search&utm_source=g98UKJoNIm4WCojBNMJKvA
Sweetwater_Restaurant,4,427,2,"New_American, Bars",Brooklyn,NY,11249,40.7184736,-73.9600178,"105 N 6th St Brooklyn, NY 11249",https://www.yelp.com/biz/sweetwater-restaurant-brooklyn-2?adjust_creative=g98UKJoNIm4WCojBNMJKvA&utm_campaign=yelp_api_v3&utm_medium=api_v3_business_search&utm_source=g98UKJoNIm4WCojBNMJKvA
Locanda_Verde,4,1728,3,"Italian, Cocktail_Bars, Breakfast_and_Brunch",New York,NY,10013,40.71986013,-74.01003907,"377 Greenwich St New York, NY 10013",https://www.yelp.com/biz/locanda-verde-new-york?adjust_creative=g98UKJoNIm4WCojBNMJKvA&utm_campaign=yelp_api_v3&utm_medium=api_v3_business_search&utm_source=g98UKJoNIm4WCojBNMJKvA
The_Orchard_Townhouse,4,55,3,"American_Traditional, Wine_Bars",New York,NY,10001,40.748382,-74.00345306,"242 10th Ave New York, NY 10001",https://www.yelp.com/biz/the-orchard-townhouse-new-york?adjust_creative=g98UKJoNIm4WCojBNMJKvA&utm_campaign=yelp_api_v3&utm_medium=api_v3_business_search&utm_source=g98UKJoNIm4WCojBNMJKvA
L'Accolade,4.5,113,2,"French, New_American, Wine_Bars",New York,NY,10014,40.732484,-74.003915,"302 Bleecker St New York, NY 10014",https://www.yelp.com/biz/l-accolade-new-york?adjust_creative=g98UKJoNIm4WCojBNMJKvA&utm_campaign=yelp_api_v3&utm_medium=api_v3_business_search&utm_source=g98UKJoNIm4WCojBNMJKvA
Izakaya_Juraku,4.5,156,2,"Bars, Izakaya, Ramen",New York,NY,10002,40.71967963,-73.98870885,"121 Ludlow St New York, NY 10002",https://www.yelp.com/biz/izakaya-juraku-new-york-2?adjust_creative=g98UKJoNIm4WCojBNMJKvA&utm_campaign=yelp_api_v3&utm_medium=api_v3_business_search&utm_source=g98UKJoNIm4WCojBNMJKvA
La_Parisienne,4.5,670,2,"Cafe, Breakfast_and_Brunch, Wine_Bars",New York,NY,10038,40.70961,-74.0093799,"9 Maiden Ln New York, NY 10038",https://www.yelp.com/biz/la-parisienne-new-york-5?adjust_creative=g98UKJoNIm4WCojBNMJKvA&utm_campaign=yelp_api_v3&utm_medium=api_v3_business_search&utm_source=g98UKJoNIm4WCojBNMJKvA
Society_Cafe,4,206,2,"New_American, Cafe, Breakfast_and_Brunch",New York,NY,10011,40.73621709,-73.9966,"52 W 13th St New York, NY 10011",https://www.yelp.com/biz/society-cafe-new-york-2?adjust_creative=g98UKJoNIm4WCojBNMJKvA&utm_campaign=yelp_api_v3&utm_medium=api_v3_business_search&utm_source=g98UKJoNIm4WCojBNMJKvA
Il_Corallo_Trattoria,4,1060,2,"Italian, Pizza",New York,NY,10012,40.7262073,-74.0018919,"176 Prince St New York, NY 10012",https://www.yelp.com/biz/il-corallo-trattoria-new-york?adjust_creative=g98UKJoNIm4WCojBNMJKvA&utm_campaign=yelp_api_v3&utm_medium=api_v3_business_search&utm_source=g98UKJoNIm4WCojBNMJKvA
Wok_Wok_Southeast_Asian_Kitchen,4,1089,2,"Chinese, Malaysian, Thai",New York,NY,10013,40.7140555,-73.99883871,"11 Mott St New York, NY 10013",https://www.yelp.com/biz/wok-wok-southeast-asian-kitchen-new-york?adjust_creative=g98UKJoNIm4WCojBNMJKvA&utm_campaign=yelp_api_v3&utm_medium=api_v3_business_search&utm_source=g98UKJoNIm4WCojBNMJKvA
Banter,4.5,90,2,"Breakfast_and_Brunch, Coffee_and_Tea, Acai_Bowls",New York,NY,10014,40.739135,-74.005738,"643 Hudson St New York, NY 10014",https://www.yelp.com/biz/banter-new-york-3?adjust_creative=g98UKJoNIm4WCojBNMJKvA&utm_campaign=yelp_api_v3&utm_medium=api_v3_business_search&utm_source=g98UKJoNIm4WCojBNMJKvA
Naked_Dog,4.5,253,2,"Italian, Wine_Bars, Cocktail_Bars",Brooklyn,NY,11222,40.73127207,-73.95934936,"47 Java St Brooklyn, NY 11222",https://www.yelp.com/biz/naked-dog-brooklyn-2?adjust_creative=g98UKJoNIm4WCojBNMJKvA&utm_campaign=yelp_api_v3&utm_medium=api_v3_business_search&utm_source=g98UKJoNIm4WCojBNMJKvA
Leyenda,4,278,2,"Latin_America, Mexican, Cocktail_Bars",Brooklyn,NY,11201,40.68431,-73.99197,"221 Smith St Brooklyn, NY 11201",https://www.yelp.com/biz/leyenda-brooklyn?adjust_creative=g98UKJoNIm4WCojBNMJKvA&utm_campaign=yelp_api_v3&utm_medium=api_v3_business_search&utm_source=g98UKJoNIm4WCojBNMJKvA
Madre,4.5,105,3,New_American,Brooklyn,NY,11222,40.73311,-73.95798,"214 Franklin St Brooklyn, NY 11222",https://www.yelp.com/biz/madre-brooklyn-2?adjust_creative=g98UKJoNIm4WCojBNMJKvA&utm_campaign=yelp_api_v3&utm_medium=api_v3_business_search&utm_source=g98UKJoNIm4WCojBNMJKvA
Westville_Chelsea,4,1174,2,"New_American, Breakfast_and_Brunch",New York,NY,10011,40.74175,-74.00007,"246 W 18th St New York, NY 10011",https://www.yelp.com/biz/westville-chelsea-new-york-2?adjust_creative=g98UKJoNIm4WCojBNMJKvA&utm_campaign=yelp_api_v3&utm_medium=api_v3_business_search&utm_source=g98UKJoNIm4WCojBNMJKvA
Sea_Wolf_Bushwick,4,603,2,"Cocktail_Bars, Seafood, American_Traditional",Brooklyn,NY,11237,40.70683,-73.9228,"19 Wyckoff Ave Brooklyn, NY 11237",https://www.yelp.com/biz/sea-wolf-bushwick-brooklyn?adjust_creative=g98UKJoNIm4WCojBNMJKvA&utm_campaign=yelp_api_v3&utm_medium=api_v3_business_search&utm_source=g98UKJoNIm4WCojBNMJKvA
Blue_Ribbon_Brasserie_SoHo,4.5,958,3,"American_Traditional, Cocktail_Bars, Desserts",New York,NY,10012,40.725456,-74.003027,"97 Sullivan St New York, NY 10012",https://www.yelp.com/biz/blue-ribbon-brasserie-soho-new-york?adjust_creative=g98UKJoNIm4WCojBNMJKvA&utm_campaign=yelp_api_v3&utm_medium=api_v3_business_search&utm_source=g98UKJoNIm4WCojBNMJKvA
Citizens_Of_Soho,4,57,2,"Cafe, Breakfast_and_Brunch, Australian",New York,NY,10012,40.72134572,-73.99766916,"201 Lafayette St New York, NY 10012",https://www.yelp.com/biz/citizens-of-soho-new-york?adjust_creative=g98UKJoNIm4WCojBNMJKvA&utm_campaign=yelp_api_v3&utm_medium=api_v3_business_search&utm_source=g98UKJoNIm4WCojBNMJKvA
Ops,4.5,163,2,"Pizza, Wine_Bars, Breakfast_and_Brunch",Brooklyn,NY,11237,40.70276,-73.9171,"346 Himrod St Brooklyn, NY 11237",https://www.yelp.com/biz/ops-brooklyn?adjust_creative=g98UKJoNIm4WCojBNMJKvA&utm_campaign=yelp_api_v3&utm_medium=api_v3_business_search&utm_source=g98UKJoNIm4WCojBNMJKvA
Aita,4,298,3,Italian,Brooklyn,NY,11238,40.686412,-73.966629,"132 Greene Ave Brooklyn, NY 11238",https://www.yelp.com/biz/aita-brooklyn?adjust_creative=g98UKJoNIm4WCojBNMJKvA&utm_campaign=yelp_api_v3&utm_medium=api_v3_business_search&utm_source=g98UKJoNIm4WCojBNMJKvA
Barboncino_Pizza_&_Bar,4,1043,2,"Pizza, Bars, Italian",Brooklyn,NY,11238,40.67206,-73.95717,"781 Franklin Ave Brooklyn, NY 11238",https://www.yelp.com/biz/barboncino-pizza-and-bar-brooklyn-2?adjust_creative=g98UKJoNIm4WCojBNMJKvA&utm_campaign=yelp_api_v3&utm_medium=api_v3_business_search&utm_source=g98UKJoNIm4WCojBNMJKvA
Marlow_&_Sons,4,527,3,New_American,Brooklyn,NY,11249,40.71061269,-73.9658814,"81 Broadway Brooklyn, NY 11249",https://www.yelp.com/biz/marlow-and-sons-brooklyn-2?adjust_creative=g98UKJoNIm4WCojBNMJKvA&utm_campaign=yelp_api_v3&utm_medium=api_v3_business_search&utm_source=g98UKJoNIm4WCojBNMJKvA
Clay_Pot_West_Village,4.5,116,2,Cantonese,New York,NY,10014,40.73138,-74.00319,"270 Bleeker St New York, NY 10014",https://www.yelp.com/biz/clay-pot-west-village-new-york-3?adjust_creative=g98UKJoNIm4WCojBNMJKvA&utm_campaign=yelp_api_v3&utm_medium=api_v3_business_search&utm_source=g98UKJoNIm4WCojBNMJKvA
The_Hideaway_Seaport,4,117,2,"Bars, New_American, Gastropub",New York,NY,10038,40.7080634,-74.002083,"22 Peck Slip New York, NY 10038",https://www.yelp.com/biz/the-hideaway-seaport-new-york?adjust_creative=g98UKJoNIm4WCojBNMJKvA&utm_campaign=yelp_api_v3&utm_medium=api_v3_business_search&utm_source=g98UKJoNIm4WCojBNMJKvA
Boran,4.5,219,2,Thai,Brooklyn,NY,11231,40.6782327,-73.998062,"462 Court St Brooklyn, NY 11231",https://www.yelp.com/biz/boran-brooklyn-2?adjust_creative=g98UKJoNIm4WCojBNMJKvA&utm_campaign=yelp_api_v3&utm_medium=api_v3_business_search&utm_source=g98UKJoNIm4WCojBNMJKvA
Ginger_and_Lemongrass,4,479,2,"Vietnamese, Thai, Asian_Fusion",New York,NY,10002,40.71912,-73.98567,"153 Rivington St New York, NY 10002",https://www.yelp.com/biz/ginger-and-lemongrass-new-york-2?adjust_creative=g98UKJoNIm4WCojBNMJKvA&utm_campaign=yelp_api_v3&utm_medium=api_v3_business_search&utm_source=g98UKJoNIm4WCojBNMJKvA
Paulie_Gee's,4.5,1304,2,Pizza,Brooklyn,NY,11222,40.729546,-73.958568,"60 Greenpoint Ave Brooklyn, NY 11222",https://www.yelp.com/biz/paulie-gees-brooklyn?adjust_creative=g98UKJoNIm4WCojBNMJKvA&utm_campaign=yelp_api_v3&utm_medium=api_v3_business_search&utm_source=g98UKJoNIm4WCojBNMJKvA
Tacovision,4,285,2,"Tacos, Tapas_SmallPlates",New York,NY,10004,40.75682003,-73.9678929,"244 E 53rd St New York, NY 10004",https://www.yelp.com/biz/tacovision-new-york?adjust_creative=g98UKJoNIm4WCojBNMJKvA&utm_campaign=yelp_api_v3&utm_medium=api_v3_business_search&utm_source=g98UKJoNIm4WCojBNMJKvA
June,4,189,2,"Wine_Bars, Tapas_SmallPlates, New_American",Brooklyn,NY,11201,40.68606513,-73.99388911,"231 Court St Brooklyn, NY 11201",https://www.yelp.com/biz/june-brooklyn-3?adjust_creative=g98UKJoNIm4WCojBNMJKvA&utm_campaign=yelp_api_v3&utm_medium=api_v3_business_search&utm_source=g98UKJoNIm4WCojBNMJKvA
Amici_Ristorante,4.5,117,2,Italian,New York,NY,10013,40.71981,-73.99722,"165 Mulberry St New York, NY 10013",https://www.yelp.com/biz/amici-ristorante-new-york-3?adjust_creative=g98UKJoNIm4WCojBNMJKvA&utm_campaign=yelp_api_v3&utm_medium=api_v3_business_search&utm_source=g98UKJoNIm4WCojBNMJKvA
Terre,4.5,121,2,"Italian, Wine_Bars, Breakfast_and_Brunch",Brooklyn,NY,11215,40.67194983,-73.98377195,"341 5th Ave Brooklyn, NY 11215",https://www.yelp.com/biz/terre-brooklyn?adjust_creative=g98UKJoNIm4WCojBNMJKvA&utm_campaign=yelp_api_v3&utm_medium=api_v3_business_search&utm_source=g98UKJoNIm4WCojBNMJKvA
Chavela's,4,1192,2,"Mexican, Bars",Brooklyn,NY,11238,40.673484,-73.957267,"736 Franklin Ave Brooklyn, NY 11238",https://www.yelp.com/biz/chavelas-brooklyn-2?adjust_creative=g98UKJoNIm4WCojBNMJKvA&utm_campaign=yelp_api_v3&utm_medium=api_v3_business_search&utm_source=g98UKJoNIm4WCojBNMJKvA
Aunt_Jake's,4,1604,2,"Italian, Wine_Bars, Pasta_Shops",New York,NY,10013,40.7186467,-73.9979241,"133 Mulberry St New York, NY 10013",https://www.yelp.com/biz/aunt-jakes-new-york?adjust_creative=g98UKJoNIm4WCojBNMJKvA&utm_campaign=yelp_api_v3&utm_medium=api_v3_business_search&utm_source=g98UKJoNIm4WCojBNMJKvA
Schilling,4,170,2,"Austrian, Bars, New_American",New York,NY,10006,40.70857,-74.014,"109 Washington St New York, NY 10006",https://www.yelp.com/biz/schilling-new-york?adjust_creative=g98UKJoNIm4WCojBNMJKvA&utm_campaign=yelp_api_v3&utm_medium=api_v3_business_search&utm_source=g98UKJoNIm4WCojBNMJKvA
Clark's_Restaurant,4,459,2,"Diners, New_American",Brooklyn,NY,11201,40.69740294,-73.99325008,"80 Clark St Brooklyn, NY 11201",https://www.yelp.com/biz/clarks-restaurant-brooklyn?adjust_creative=g98UKJoNIm4WCojBNMJKvA&utm_campaign=yelp_api_v3&utm_medium=api_v3_business_search&utm_source=g98UKJoNIm4WCojBNMJKvA
Tonchin,4.5,1534,2,"Ramen, Izakaya",New York,NY,10018,40.7502727,-73.9844951,"13 W 36th St New York, NY 10018",https://www.yelp.com/biz/tonchin-new-york-2?adjust_creative=g98UKJoNIm4WCojBNMJKvA&utm_campaign=yelp_api_v3&utm_medium=api_v3_business_search&utm_source=g98UKJoNIm4WCojBNMJKvA
Frangos_Peri_Peri,4.5,96,2,"Portuguese, ",New York,NY,10009,40.727787,-73.979444,"182 Avenue B New York, NY 10009",https://www.yelp.com/biz/frangos-peri-peri-new-york?adjust_creative=g98UKJoNIm4WCojBNMJKvA&utm_campaign=yelp_api_v3&utm_medium=api_v3_business_search&utm_source=g98UKJoNIm4WCojBNMJKvA
Flip_Sigi,4,874,2,"Filipino, Tacos, Burgers",New York,NY,10014,40.7344965,-74.0020674,"131 7th Ave S New York, NY 10014",https://www.yelp.com/biz/flip-sigi-new-york-2?adjust_creative=g98UKJoNIm4WCojBNMJKvA&utm_campaign=yelp_api_v3&utm_medium=api_v3_business_search&utm_source=g98UKJoNIm4WCojBNMJKvA
Dim_Sum_Palace,4,1450,2,"Dimsum, Cantonese",New York,NY,10036,40.76015,-73.9893699,"334 W 46th St New York, NY 10036",https://www.yelp.com/biz/dim-sum-palace-new-york-8?adjust_creative=g98UKJoNIm4WCojBNMJKvA&utm_campaign=yelp_api_v3&utm_medium=api_v3_business_search&utm_source=g98UKJoNIm4WCojBNMJKvA
Di_An_Di,4,245,2,"Vietnamese, Cocktail_Bars",Brooklyn,NY,11222,40.72969,-73.95827,"68 Greenpoint Ave Ground Fl Brooklyn, NY 11222",https://www.yelp.com/biz/di-an-di-brooklyn-2?adjust_creative=g98UKJoNIm4WCojBNMJKvA&utm_campaign=yelp_api_v3&utm_medium=api_v3_business_search&utm_source=g98UKJoNIm4WCojBNMJKvA
Mao_Mao,4,47,2,Thai,Brooklyn,NY,11221,40.69583,-73.933508,"1000 Bdwy Brooklyn, NY 11221",https://www.yelp.com/biz/mao-mao-brooklyn?adjust_creative=g98UKJoNIm4WCojBNMJKvA&utm_campaign=yelp_api_v3&utm_medium=api_v3_business_search&utm_source=g98UKJoNIm4WCojBNMJKvA
ICHIRAN_Midtown,4,1015,2,"Ramen, Noodles, Soup",New York,NY,10001,40.74839,-73.99062,"132 W 31st St New York, NY 10001",https://www.yelp.com/biz/ichiran-midtown-new-york?adjust_creative=g98UKJoNIm4WCojBNMJKvA&utm_campaign=yelp_api_v3&utm_medium=api_v3_business_search&utm_source=g98UKJoNIm4WCojBNMJKvA
Trapizzino,4.5,252,2,"Italian, Wine_Bars, Cocktail_Bars",New York,NY,10002,40.72043,-73.98894,"144 Orchard St New York, NY 10002",https://www.yelp.com/biz/trapizzino-new-york?adjust_creative=g98UKJoNIm4WCojBNMJKvA&utm_campaign=yelp_api_v3&utm_medium=api_v3_business_search&utm_source=g98UKJoNIm4WCojBNMJKvA
Kabisera,4.5,120,2,"Coffee_and_Tea, Filipino, Desserts",New York,NY,10002,40.720907,-73.989913,"151 Allen St Store South New York, NY 10002",https://www.yelp.com/biz/kabisera-new-york-4?adjust_creative=g98UKJoNIm4WCojBNMJKvA&utm_campaign=yelp_api_v3&utm_medium=api_v3_business_search&utm_source=g98UKJoNIm4WCojBNMJKvA
Ume_Williamsburg,4,314,4,Sushi_Bars,Brooklyn,NY,11249,40.71657,-73.96559,"237 Kent Ave Brooklyn, NY 11249",https://www.yelp.com/biz/ume-williamsburg-brooklyn?adjust_creative=g98UKJoNIm4WCojBNMJKvA&utm_campaign=yelp_api_v3&utm_medium=api_v3_business_search&utm_source=g98UKJoNIm4WCojBNMJKvA
The_Grey_Dog_Union_Square,4,1110,2,"Coffee_and_Tea, Breakfast_and_Brunch, American_Traditional",New York,NY,10003,40.733828,-73.993052,"90 University Pl New York, NY 10003",https://www.yelp.com/biz/the-grey-dog-union-square-new-york?adjust_creative=g98UKJoNIm4WCojBNMJKvA&utm_campaign=yelp_api_v3&utm_medium=api_v3_business_search&utm_source=g98UKJoNIm4WCojBNMJKvA
Fornino,4,268,2,"Italian, Pizza",Brooklyn,NY,11201,40.69287353,-74.00169323,"Pier 6 Brooklyn Bridge Park Brooklyn, NY 11201",https://www.yelp.com/biz/fornino-brooklyn-5?adjust_creative=g98UKJoNIm4WCojBNMJKvA&utm_campaign=yelp_api_v3&utm_medium=api_v3_business_search&utm_source=g98UKJoNIm4WCojBNMJKvA
Katsu-Hama,4,1443,2,Japanese,New York,NY,10017,40.75638,-73.97759,"11 E 47th St New York, NY 10017",https://www.yelp.com/biz/katsu-hama-new-york?adjust_creative=g98UKJoNIm4WCojBNMJKvA&utm_campaign=yelp_api_v3&utm_medium=api_v3_business_search&utm_source=g98UKJoNIm4WCojBNMJKvA
YunShang_Rice_Noodle_House,4,247,2,"Chinese, Noodles, Asian_Fusion",New York,NY,10013,40.71525,-73.99765,"53 Bayard St New York, NY 10013",https://www.yelp.com/biz/yunshang-rice-noodle-house-new-york-5?adjust_creative=g98UKJoNIm4WCojBNMJKvA&utm_campaign=yelp_api_v3&utm_medium=api_v3_business_search&utm_source=g98UKJoNIm4WCojBNMJKvA
Joseph_Leonard,4,689,2,"New_American, French",New York,NY,10014,40.73360217,-74.00167541,"170 Waverly Pl New York, NY 10014",https://www.yelp.com/biz/joseph-leonard-new-york?adjust_creative=g98UKJoNIm4WCojBNMJKvA&utm_campaign=yelp_api_v3&utm_medium=api_v3_business_search&utm_source=g98UKJoNIm4WCojBNMJKvA
Mekelburg's,4,86,2,"Bars, Sandwiches, Tapas_SmallPlates",Brooklyn,NY,11249,40.71375,-73.96704,"319 Kent Ave Brooklyn, NY 11249",https://www.yelp.com/biz/mekelburgs-brooklyn-3?adjust_creative=g98UKJoNIm4WCojBNMJKvA&utm_campaign=yelp_api_v3&utm_medium=api_v3_business_search&utm_source=g98UKJoNIm4WCojBNMJKvA
Vineapple_Cafe,4.5,81,2,"Coffee_and_Tea, Italian, Cocktail_Bars",Brooklyn,NY,11201,40.69829673,-73.99307556,"71 Pineapple St Brooklyn, NY 11201",https://www.yelp.com/biz/vineapple-cafe-brooklyn?adjust_creative=g98UKJoNIm4WCojBNMJKvA&utm_campaign=yelp_api_v3&utm_medium=api_v3_business_search&utm_source=g98UKJoNIm4WCojBNMJKvA
The_Wren,4,582,2,"Bars, Breakfast_and_Brunch, ",New York,NY,10012,40.72633507,-73.99204769,"344 Bowery New York, NY 10012",https://www.yelp.com/biz/the-wren-new-york?adjust_creative=g98UKJoNIm4WCojBNMJKvA&utm_campaign=yelp_api_v3&utm_medium=api_v3_business_search&utm_source=g98UKJoNIm4WCojBNMJKvA
Llama_San,4,214,4,"Japanese, Peruvian",New York,NY,10014,40.73225,-74.00078,"359 6th Ave New York, NY 10014",https://www.yelp.com/biz/llama-san-new-york-4?adjust_creative=g98UKJoNIm4WCojBNMJKvA&utm_campaign=yelp_api_v3&utm_medium=api_v3_business_search&utm_source=g98UKJoNIm4WCojBNMJKvA
Doma,4.5,38,2,"Korean, Bars, Tapas_SmallPlates",New York,NY,10009,40.72703,-73.985392,"120 1st Ave New York, NY 10009",https://www.yelp.com/biz/doma-new-york-4?adjust_creative=g98UKJoNIm4WCojBNMJKvA&utm_campaign=yelp_api_v3&utm_medium=api_v3_business_search&utm_source=g98UKJoNIm4WCojBNMJKvA
The_Wilson,4,253,2,"New_American, Breakfast_and_Brunch, Bars",New York,NY,10001,40.74587,-73.99265,"132 W 27th St New York, NY 10001",https://www.yelp.com/biz/the-wilson-new-york-2?adjust_creative=g98UKJoNIm4WCojBNMJKvA&utm_campaign=yelp_api_v3&utm_medium=api_v3_business_search&utm_source=g98UKJoNIm4WCojBNMJKvA
Calle_Dao_Chelsea,4.5,862,2,"Cuban, Chinese, Asian_Fusion",New York,NY,10011,40.74769301,-74.00350737,"461 W 23rd St New York, NY 10011",https://www.yelp.com/biz/calle-dao-chelsea-new-york?adjust_creative=g98UKJoNIm4WCojBNMJKvA&utm_campaign=yelp_api_v3&utm_medium=api_v3_business_search&utm_source=g98UKJoNIm4WCojBNMJKvA
Pineapple_Club,4.5,178,2,"Cocktail_Bars, New_American, Seafood",New York,NY,10009,40.725381,-73.983189,"509 E 6th St New York, NY 10009",https://www.yelp.com/biz/pineapple-club-new-york?adjust_creative=g98UKJoNIm4WCojBNMJKvA&utm_campaign=yelp_api_v3&utm_medium=api_v3_business_search&utm_source=g98UKJoNIm4WCojBNMJKvA
Yardbird,5,7,2,ChickenShop,Brooklyn,NY,11201,40.68798,-73.98961,"Smith Street & Pacific Street Brooklyn, NY 11201",https://www.yelp.com/biz/yardbird-brooklyn?adjust_creative=g98UKJoNIm4WCojBNMJKvA&utm_campaign=yelp_api_v3&utm_medium=api_v3_business_search&utm_source=g98UKJoNIm4WCojBNMJKvA
Sonnyboy,4.5,161,2,"Breakfast_and_Brunch, Bars, Australian",New York,NY,10002,40.72052,-73.9901,"65 Rivington St New York, NY 10002",https://www.yelp.com/biz/sonnyboy-new-york?adjust_creative=g98UKJoNIm4WCojBNMJKvA&utm_campaign=yelp_api_v3&utm_medium=api_v3_business_search&utm_source=g98UKJoNIm4WCojBNMJKvA
James_Provisions,3.5,464,3,New_American,Brooklyn,NY,11238,40.678984,-73.971489,"605 Carlton Ave Brooklyn, NY 11238",https://www.yelp.com/biz/james-provisions-brooklyn?adjust_creative=g98UKJoNIm4WCojBNMJKvA&utm_campaign=yelp_api_v3&utm_medium=api_v3_business_search&utm_source=g98UKJoNIm4WCojBNMJKvA
ilili,4,2532,3,"Mediterranean, Lebanese, Cocktail_Bars",New York,NY,10001,40.74435,-73.98778,"236 5th Ave New York, NY 10001",https://www.yelp.com/biz/ilili-new-york-2?adjust_creative=g98UKJoNIm4WCojBNMJKvA&utm_campaign=yelp_api_v3&utm_medium=api_v3_business_search&utm_source=g98UKJoNIm4WCojBNMJKvA
Nara_Sushi,4.5,66,2,"Sushi_Bars, Japanese",New York,NY,10004,40.70377,-74.01041,"76 Pearl St New York, NY 10004",https://www.yelp.com/biz/nara-sushi-new-york?adjust_creative=g98UKJoNIm4WCojBNMJKvA&utm_campaign=yelp_api_v3&utm_medium=api_v3_business_search&utm_source=g98UKJoNIm4WCojBNMJKvA
Lure_Fishbar,4,1777,3,"Seafood, Sushi_Bars, Bars",New York,NY,10012,40.72461217,-73.99857471,"142 Mercer St New York, NY 10012",https://www.yelp.com/biz/lure-fishbar-new-york-2?adjust_creative=g98UKJoNIm4WCojBNMJKvA&utm_campaign=yelp_api_v3&utm_medium=api_v3_business_search&utm_source=g98UKJoNIm4WCojBNMJKvA
Meadowsweet,4,441,3,American_Traditional,Brooklyn,NY,11211,40.7103995,-73.9632384,"149 Broadway Brooklyn, NY 11211",https://www.yelp.com/biz/meadowsweet-brooklyn?adjust_creative=g98UKJoNIm4WCojBNMJKvA&utm_campaign=yelp_api_v3&utm_medium=api_v3_business_search&utm_source=g98UKJoNIm4WCojBNMJKvA
